id,title,date,startTime,endTime,timeText,district,postalCode,locationText,category,riskLevel,score,participantCount,lat,lon,geocodingConfidence,routeText,reasons
c30440ca73e8c2e1-0,Sitzstreik und Mahnwache für Menschenrechte im Iran sowie für eine Neubewertung der diplomatischen Beziehungen Verlänge- rung der Mahnwache (vom 01.07. bis 31.07.2026 - täglich),2026-07-06,00:00,23:59,00:00 - 23:59,"",10557,Platz der Republik 1,LABOR_SOCIAL,LOW,15,"",52.5186538,13.3761015,0.8,"","Labor or social topic, usually with low operational risk"
c30440ca73e8c2e1-1,Langandauernder Hungerstreik einer aserbaidschanischen politischen Gefangenen mit der Forderung nach ihrer Freilassung. (vom 05.07. bis 15.07.2026 - täglich),2026-07-06,00:00,00:00,00:00 - 00:00,"",10557,Willy-Brandt-Str. 1,LABOR_SOCIAL,LOW,15,"",52.5201946,13.3691292,0.8,"","Labor or social topic, usually with low operational risk"
c30440ca73e8c2e1-2,Foto-/Pressetermin mit mehreren Hilfsorganisationen (begleitend zum laufenden Appell) gegen Haushaltskürzungen für Humanitäre Hilfe und Entwicklungszusammenarbeit,2026-07-06,09:00,11:00,09:00 - 11:00,"",10557,Willy-Brandt-Str. 1,EDUCATION_BUDGET,LOW,10,"",52.5201946,13.3691292,0.8,"",Social or budget-related education topic without signs of elevated conflict risk
c30440ca73e8c2e1-3,"Die Verfolgung von FALUN DAFA / FALUN-GONG Praktizierenden in China beenden, Gerechtigkeit und Wiedergutmachung für alle von der KP Verfolgte (vom 01.01. bis 31.12.2026 - jeweils Mo., Di., Mi., Do., Fr., Sa., So.)",2026-07-06,10:30,13:00,10:30 - 13:00,Mitte,10179,Jannowitzbrücke,OTHER,LOW,10,"",52.5142146,13.4194925,0.8,"",Topic could not be classified precisely
c30440ca73e8c2e1-4,"Protest gegen die fortlaufenden Hinrichtungen unschuldiger Menschen im Iran sowie Erinnerung an die Opfer, die ihr Leben für Freiheit und Menschenrechte verloren haben. (vom 01.07. bis 31.07.2026 - täglich)",2026-07-06,11:00,15:30,11:00 - 15:30,Steglitz-Zehlendorf,14195,Podbielskiallee 67,COUNTER_DEMONSTRATION,HIGH,60,"",52.4609514,13.2999621,0.8,"",Counter-demonstration significantly increases operational risk
c30440ca73e8c2e1-6,"Mahnwache vor dem RKI. Kritisiert wird die Rolle des RKI im Zusammenhang mit der Corona-Hysterie und den dadurch begründeten Menschenrechtsverletzungen. Es besteht weiterhin die Forderung nach Erfüllung der Informationspflicht als Regierungsbehörde. Ferner ist bislang keinerlei Bemühung um Aufarbeitung der begangenen Rechtsbrüche zu erkennen. Da zudem längst Vorbereitungen für die nächste Pandemiesimulation angelaufen sind, ist ein Ende der Notwendigkeit der Mahnwache nicht abzusehen. (vom 01.09.2025 bis 31.08.2026 - jeweils Mo.)",2026-07-06,12:00,14:00,12:00 - 14:00,Mitte,13353,Nordufer 20,LABOR_SOCIAL,LOW,15,"",52.5395724,13.3468259,0.8,"","Labor or social topic, usually with low operational risk"
c30440ca73e8c2e1-5,"Kundgebung und Übergabe eines Kummerkastens an die BVG. Wir sind eine Gruppe an Personen, die sich für sicheres Fahren von Flinta Personen in den Verkehrsmitteln der BVG (U-Bahn, Tram und Bus) einsetzt. Unsere Kampagne nennt sich: „Sicher durch die Nacht - Endstation für Belästigung“ Wir fordern Flinta-Abteile in den Verkehrsmitteln, Markierungen an Bahnhöfen sowie ein verbindliches Schutzkonzept. Wir wollen, dass die MAßnahmen vor allem nachts greifen. Wir haben Erfahrungsberichte gesammelt, die Belästigungserfahru- ngen in der BVG sichtbar machen.",2026-07-06,12:00,13:00,12:00 - 13:00,Mitte,10179,Holzmarktstr. 15-17,TRANSPORT,LOW,10,"",52.5131034,13.4232639,0.8,"",Transport or infrastructure topic
c30440ca73e8c2e1-7,Diskurs üben - Menschlichkeit bewahren - Frieden lernen! (vom 05.01. bis 28.12.2026 - jeweils ),2026-07-06,14:00,19:00,14:00 - 19:00,Pankow,13086,Antonplatz 1,OTHER_POLITICAL,LOW,20,"",52.5488199,13.4509296,0.8,"",General political topic
c30440ca73e8c2e1-9,"Falun Dafa ist gut! – Wahrhaftigkeit, Barmherzigkeit, Nachsicht sind gut! Stoppt die Verfolgung von Falun Gong in China durch die bösartige Kommunistische Partei Chinas! Stoppt den staatlich organisierten Organraub an Falun Gong-Praktizieren- den! Tuidang – Schnell austreten aus allen Organisationen der KP-Chinas! (vom 26.05. bis 24.10.2026 - täglich)",2026-07-06,15:00,17:00,15:00 - 17:00,Treptow-Köpenick,12435,S-Bhf. Treptower Park,FAR_LEFT,HIGH,50,"",52.4919839,13.4624681,0.8,"",Far-left mobilization with moderate conflict potential
c30440ca73e8c2e1-8,Mahnwache,2026-07-06,15:00,16:00,15:00 - 16:00,Treptow-Köpenick,12437,Baumschulenstr. 82,EDUCATION_BUDGET,LOW,10,"",52.4676128,13.4895264,0.8,"",Social or budget-related education topic without signs of elevated conflict risk
c30440ca73e8c2e1-10,Pride Month Berlin,2026-07-06,15:30,16:15,15:30 - 16:15,Charlottenburg-Wilmersdorf,13597,Carl-Schurz-Str. 2,OTHER,LOW,10,"",52.5346687,13.1999985,0.8,"",Topic could not be classified precisely
c30440ca73e8c2e1-11,Mahnwache für Frieden und Menschenrechte weltweit (vom 02.03. bis 26.10.2026 - jeweils Mo.),2026-07-06,16:00,17:30,16:00 - 17:30,Mitte,10117,Pariser Platz 2,OTHER_POLITICAL,LOW,20,"",52.515292,13.3781671,0.8,"",General political topic
c30440ca73e8c2e1-12,Open Lecture gegen die repressive Raumvergabe der Humboldt Universität,2026-07-06,16:30,20:00,16:30 - 20:00,Mitte,10117,Hegelplatz,COUNTER_DEMONSTRATION,HIGH,60,"",52.5197989,13.3926928,0.8,"",Counter-demonstration significantly increases operational risk
c30440ca73e8c2e1-13,STOPPT den Krieg! Frieden und Freiheit für die Ukraine! JETZT! (vom 13.04. bis 06.07.2026 - jeweils Mo.),2026-07-06,17:45,19:00,17:45 - 19:00,Treptow-Köpenick,12559,Alt-Müggelheim 22,UKRAINE_RUSSIA,HIGH,45,"",52.4116669,13.6629606,0.8,"",Foreign policy topic with potentially high emotional tension
c30440ca73e8c2e1-15,Weg mit Hartz 4 und dem Bürgergeldbetrug! - Aktiver Widerstand gegen einen 3. Weltkrieg! - Montag ist Tag des Widerstands! (vom 05.01.2026 bis 05.01.2027 - jeweils Mo.),2026-07-06,17:45,20:00,17:45 - 20:00,Mitte,10178,Alexanderplatz 1,UKRAINE_RUSSIA,HIGH,45,"",52.5215058,13.4123809,0.8,"",Foreign policy topic with potentially high emotional tension
c30440ca73e8c2e1-14,"Für Frieden, Freiheit und Selbstbestimmung (vom 05.01. bis 28.12.2026 - jeweils Mo.)",2026-07-06,17:45,19:30,17:45 - 19:30,Steglitz-Zehlendorf,14163,Kirchstr. 1,OTHER_POLITICAL,LOW,20,"",52.4333344,13.2579626,0.8,"",General political topic
c30440ca73e8c2e1-17,Fortsetzung unserer Antikriegsmahnwachen (vom 31.03. bis 31.12.2026 - jeweils Mo.),2026-07-06,18:00,19:00,18:00 - 19:00,Mitte,10178,Alexanderplatz 1,UKRAINE_RUSSIA,HIGH,45,"",52.5215058,13.4123809,0.8,"",Foreign policy topic with potentially high emotional tension
c30440ca73e8c2e1-21,"WELTFRIEDEN Frieden im Innen macht Frieden im Außen. Wir stehen: - Für die sofortige Beendigung aller Kriege und kriegerischen Maßnahmen weltweit. - Für bedingubgslose Menschenrechte. Die Würde jedes Menschen ist unantastbar. - Für Frieden in der Ukraine und Frieden mit Russland. - Ganz besonders liegt und der Frieden und die Beendigung des Genozids im Nahen Osten am Herzen. Für den Frieden in der Welt, braucht es Menschen mit Frieden im Herzen. Wir brauchen Brücken. Und wir brauchen Mut. Mut zur Liebe. (vom 01.12.2025 bis 30.11.2026 - jeweils Mo.)",2026-07-06,18:00,22:00,18:00 - 22:00,Tempelhof-Schöneberg,10785,Potsdamer Platz,UKRAINE_RUSSIA,HIGH,45,"",52.5098014,13.3755898,0.8,"",Foreign policy topic with potentially high emotional tension
c30440ca73e8c2e1-16,Frieden schaffen ohne Waffen (vom 05.01. bis 21.12.2026 - jeweils Mo.),2026-07-06,18:00,19:00,18:00 - 19:00,"","","",OTHER_POLITICAL,MEDIUM,30,"","","","",Alt-Müggelheim 17 (AP auf dem Dorfanger) - Müggelheimer Damm - Müggelheimer Damm 244 - Müggelheimer Damm - Alt-Müggelheim 17 (EP auf dem Dorfanger),General political topic; A march affects more streets than a static assembly
c30440ca73e8c2e1-19,"Nachbarschaftlich zusammen für uneingeschränkte Grundr- echte und Friedenspolitik, gegen ID 2020, die Agenda 2030, und das globale WHO Pandemie- Diktat! Für uneingeschränkte Menschenrechte! (vom 19.01. bis 28.12.2026 - jeweils Mo.) (vom 19.01. bis 28.12.2026 - jeweils Mo.)",2026-07-06,18:00,20:00,18:00 - 20:00,Tempelhof-Schöneberg,"","",OTHER_POLITICAL,MEDIUM,30,"","","","",John-F.-Kennedy-Platz (Rathaus Schöneberg) - Belziger Str. - Heinrich-Lassen-Park - Hauptstr. - Akazienstr. - Apostel-Paulus-Kirche (ZK) - Goltzstr. - Winterfeldplatz - Maaßenstr. (ZK) - Nollendorfplatz - Winterfeldplatz,General political topic; A march affects more streets than a static assembly
c30440ca73e8c2e1-18,Aufarbeitung der Coronamaßnahmen Frieden- Keine Waffen in Kriegsgebiete (vom 05.01. bis 28.12.2026 - jeweils Mo.),2026-07-06,18:00,20:00,18:00 - 20:00,Charlottenburg-Wilmersdorf,"","",LABOR_SOCIAL,MEDIUM,25,"","","","",Wilmersdorfer Str./Ecke Krumme Str. - (AK) - Wilmersdorfer Str. - Schillerstr. - wenden - Wilmersdorfer Str. (ZK vor Lidl) - Wilmersdorfer Str. 55 - wenden - Wilmersdorfer Str. - Goethestr. (EK),"Labor or social topic, usually with low operational risk; A march affects more streets than a static assembly"
c30440ca73e8c2e1-20,"TEGEL steht AUF - für die bedingungslose Einhaltung aller Grundrechte, - für sofortigen Waffenstillstand und Diplomatie statt Waffenlieferungen und Kriegstreiberei, - für das Grundrecht auf Barzahlung und das Recht auf ein analoges Leben, - für die Bewahrung des Mittelstands vor Zerschlagung und Deindustriealisierung, - für eine Politik frei von Lobbyismus und Korruption, - für die vollständige und unabhängige Aufarbeitung der Corona-Maßnahmen - Für echte Mitbestimmung der Bevölkerung und eine rechtlich konsequente Politikerhaftung (vom 02.03. bis 12.10.2026 - jeweils Mo.)",2026-07-06,18:00,20:30,18:00 - 20:30,Mitte,"","",LABOR_SOCIAL,MEDIUM,25,"","","","",Alt-Tegel 2 (am Schinkelbrunnen AK) - Gorkistr. (Fußgängerzone) - Buddestr. - Brunowstr. - Berliner Str. - Am Borsigturm - zurück - Berliner Str. - Schlieperstr. - Medebacher Weg - Brunowplatz - Brunowstr. - Eisenhammerweg - Alt-Tegel - Alt-Tegel 2 (am Schinkelbrunnen EK),"Labor or social topic, usually with low operational risk; A march affects more streets than a static assembly"
c30440ca73e8c2e1-22,Sitzstreik und Mahnwache für Menschenrechte im Iran sowie für eine Neubewertung der diplomatischen Beziehungen Verlänge- rung der Mahnwache (vom 01.07. bis 31.07.2026 - täglich),2026-07-07,00:00,23:59,00:00 - 23:59,"",10557,Platz der Republik 1,LABOR_SOCIAL,LOW,15,"",52.5186538,13.3761015,0.8,"","Labor or social topic, usually with low operational risk"
c30440ca73e8c2e1-23,Langandauernder Hungerstreik einer aserbaidschanischen politischen Gefangenen mit der Forderung nach ihrer Freilassung. (vom 05.07. bis 15.07.2026 - täglich),2026-07-07,00:00,00:00,00:00 - 00:00,"",10557,Willy-Brandt-Str. 1,LABOR_SOCIAL,LOW,15,"",52.5201946,13.3691292,0.8,"","Labor or social topic, usually with low operational risk"
c30440ca73e8c2e1-24,Schulden der Kommunen in Deutschland und faire Finanzverteilung zwischen den staatlichen Ebenen,2026-07-07,08:30,13:00,08:30 - 13:00,"",14532,"",OTHER,LOW,20,"",52.3702453,13.1971362,0.3,"Stolper Weg 57, 14532 Kleinmachnow (AP) - A 115 - Landesgrenze Berlin - A 115 - Halenseestraße - Messedamm - Neue Kantstraße - Witzlebenstraße - Kaiserdamm - Straße des 17. Juni - Yitzhak-Rabin-Straße - Heinrich-von-Gagern-Straße - Paul-Löbe-Allee - Annemarie-Renger-Str. - Willy-Brandt-Straße 1 (ZK) - Annemarie-Renger-Str. - Paul-Löbe-Allee (ZK) - Heinrich-von-Gagern-Straße - Yitzhak-Rabin-Straße - Straße des 17. Juni - Ebertstraße - Hannah-Arendt-Straße - Wilhelmstraße - Wilhelmstraße 97 (EK)",Topic could not be classified precisely; A march affects more streets than a static assembly
c30440ca73e8c2e1-25,"Die Verfolgung von FALUN DAFA / FALUN-GONG Praktizierenden in China beenden, Gerechtigkeit und Wiedergutmachung für alle von der KP Verfolgte (vom 01.01. bis 31.12.2026 - jeweils Mo., Di., Mi., Do., Fr., Sa., So.)",2026-07-07,10:30,13:00,10:30 - 13:00,Mitte,10179,Jannowitzbrücke,OTHER,LOW,10,"",52.5142146,13.4194925,0.8,"",Topic could not be classified precisely
c30440ca73e8c2e1-26,"Protest gegen die fortlaufenden Hinrichtungen unschuldiger Menschen im Iran sowie Erinnerung an die Opfer, die ihr Leben für Freiheit und Menschenrechte verloren haben. (vom 01.07. bis 31.07.2026 - täglich)",2026-07-07,11:00,15:30,11:00 - 15:30,Steglitz-Zehlendorf,14195,Podbielskiallee 67,COUNTER_DEMONSTRATION,HIGH,60,"",52.4609514,13.2999621,0.8,"",Counter-demonstration significantly increases operational risk
c30440ca73e8c2e1-27,Die Würde des Menschen ist unantastbar!,2026-07-07,12:00,16:00,12:00 - 16:00,Mitte,10117,Reichstagufer 12,OTHER,LOW,10,"",52.5193543,13.3835055,0.8,"",Topic could not be classified precisely
c30440ca73e8c2e1-28,Camp zum Behindertengleichstellung- sgesetz für echte Barrierefreiheit. Wir wollen keine Floskeln mehr - anlässlich zur 2. und 3. Lesung und Abstimmung des BGGs. (vom 06.07. bis 10.07.2026 - täglich),2026-07-07,12:00,00:00,12:00 - 00:00,"",10557,Skulpturenpark,OTHER,LOW,10,"",52.5185466,13.3678935,0.8,"",Topic could not be classified precisely
c30440ca73e8c2e1-29,"Falun Dafa ist gut! – Wahrhaftigkeit, Barmherzigkeit, Nachsicht sind gut! Stoppt die Verfolgung von Falun Gong in China durch die bösartige Kommunistische Partei Chinas! Stoppt den staatlich organisierten Organraub an Falun Gong-Praktizieren- den! Tuidang – Schnell austreten aus allen Organisationen der KP-Chinas! (vom 26.05. bis 24.10.2026 - täglich)",2026-07-07,15:00,17:00,15:00 - 17:00,Treptow-Köpenick,12435,S-Bhf. Treptower Park,FAR_LEFT,HIGH,50,"",52.4919839,13.4624681,0.8,"",Far-left mobilization with moderate conflict potential
c30440ca73e8c2e1-30,Hertzbergstr. 28 bleibt. Bezahlbare Mieten in Neukölln und überall.,2026-07-07,15:00,18:00,15:00 - 18:00,Neukölln,"","",HOUSING_RENT,MEDIUM,30,"","","","",Hertzbergstr. zw. Böhmische Str. und Richardplatz (AK) - Richardplatz - Richardstr. (ZK) - Richardstr. - Ganghofer Str. - Donaustr. - Erkstr. - Vorplatz Rathaus Neukölln (EK),Housing and rent topic with moderate mobilization potential; A march affects more streets than a static assembly
c30440ca73e8c2e1-31,",,Friedenskundgebung – Give Peace a Chance",2026-07-07,16:00,17:00,16:00 - 17:00,Mitte,10117,Pariser Platz,OTHER_POLITICAL,LOW,20,"",52.5163553,13.3786828,0.8,"",General political topic
c30440ca73e8c2e1-32,Erhalt der Trabrennbahn Karlshorst,2026-07-07,16:30,18:30,16:30 - 18:30,"",10318,"",TRANSPORT,LOW,20,"",52.4830649,13.5271524,0.3,NEU: Treskowallee/Am Carlsgarten (AK am Historischen Haupteingang Trabrennbahn Karlshorst) - Treskowallee - Ehrenfelsstr. 1 (ZK) - Treskowallee - Rheinsteinstr. - Rheinsteinstr./Königswint- erstr. - Rheinsteinpark (ZK) - Rheinsteinstr./Andernache- rstr. - Königswinterstr. - Andernacherstr./Königswin- terstr. - Ehrenfelsstr. - Königswinterstr./Ehrenfel- sstr.-Ehrenfelsstr. - Ehrenfelsstr./Andernacher- str. - Stolzenfeldstr. - durch die S-Bahn-Unterführung - Am Carlsgarten - Treskowallee - Treskowallee/Am Carlsgarten (EK am Historischen Haupteingang Trabrennbahn Karlshorst) ALT: T- reskowallee 159 (AK- Trabrennbahn Karlshorst) - Treskowallee - Reinsteinstr. - Königswinterstr. - Ehrenfelsstr. - Andernacher Str. - Stolzenfelsstr. - Am Carlsgarten - Weg zur Pferde-Rennbahn - Treskowallee 159 (EK-Trabrennbahn Karlshorst),Transport or infrastructure topic; A march affects more streets than a static assembly
c30440ca73e8c2e1-34,Mahnwache gegen Leerstand,2026-07-07,17:00,19:00,17:00 - 19:00,Charlottenburg-Wilmersdorf,10789,Ansbacher Str. 33,COUNTER_DEMONSTRATION,HIGH,60,"",52.5004581,13.3416359,0.8,"",Counter-demonstration significantly increases operational risk
c30440ca73e8c2e1-33,"Menschen mit Schildern stehen wegen der aktuellen Lage, der Gesundheitsdiktatur, der Berichterstattungen der Medien, der Kriegstreiberei, der Politik, der Verfolgung Unschuldiger, der Korruption der unkontrollierten Migration und der NGO´s ... (vom 06.01. bis 29.12.2026 - jeweils Di.)",2026-07-07,17:00,18:30,17:00 - 18:30,Steglitz-Zehlendorf,12163,Schloßstr. 90,HEALTHCARE,LOW,20,"",52.4579172,13.3220183,0.8,Mittelstreifen zwischen den Hausnummern 90- 96,Healthcare topic without elevated conflict indicators; A march affects more streets than a static assembly
c30440ca73e8c2e1-35,",,Unsere Häuser verfallen und die Miete steigt - Es reicht! Es muss sich etwas ändern!",2026-07-07,17:00,19:30,17:00 - 19:30,Neukölln,12057,Michael-Bohnen-Ring,HOUSING_RENT,LOW,20,"",52.4644052,13.4734915,0.8,"",Housing and rent topic with moderate mobilization potential
c30440ca73e8c2e1-36,"Unfreundliche Begrüßung - Gegen Biedermeier*innen und Brandstifter*innen! Mit Martin Niemöller an der Seite: Als die Nazis die Kommunisten holten, habe ich geschwiegen; ich war ja kein Kommunist./ Als sie die Gewerkschaftler holten, habe ich geschwiegen, ich war ja kein Gewerkschaftler./Als sie die Juden holten, habe ich geschwiegen, ich war ja kein Jude. / Als sie mich holten, gab es keinen mehr, der protestieren konnte./ Martin Niemöller",2026-07-07,17:45,23:59,17:45 - 23:59,Pankow,13129,Alt-Blankenburg 12A,LABOR_SOCIAL,MEDIUM,25,"",52.5928105,13.4526246,0.8,"Grünfläche, Gehsteig an der Bücherbox und an der Plauderbank","Labor or social topic, usually with low operational risk; A march affects more streets than a static assembly"
c30440ca73e8c2e1-37,Bauvorhaben Klüsserather Weg,2026-07-07,18:00,19:30,18:00 - 19:30,Marzahn-Hellersdorf,12681,Klüsserather Weg 40,OTHER,LOW,10,"",52.5216766,13.536749,0.8,"",Topic could not be classified precisely
c30440ca73e8c2e1-38,ver.di Kundgebung der Charité Kolleg:innen mit Politiker:innen im Rahmen der Tarifauseinandersetzung - Entlastung an der Charité,2026-07-07,18:30,20:30,18:30 - 20:30,Friedrichshain-Kreuzberg,10243,Franz-Mehring-Platz 1,OTHER_POLITICAL,MEDIUM,30,"",52.5126016,13.4399666,0.8,"",General political topic; The event takes place in the evening
c30440ca73e8c2e1-40,Gegen Krieg und Aufrüstung,2026-07-07,18:30,22:00,18:30 - 22:00,Neukölln,"","",TRANSPORT,MEDIUM,30,"","","","",S-Bahnhof Neukölln (AK) - Karl-Marx-Str. - Fuldastr. - Sonnenallee - Hermannplatz (EK),Transport or infrastructure topic; The event takes place in the evening; A march affects more streets than a static assembly
c30440ca73e8c2e1-39,"Grenzen überbrücken - Gemeinsames Musizieren für ein friedliches und respektvolles Miteinander am Kulturort Admiralbrücke. Wir, sind eine Bürgerinitiative einer Gruppe von Menschen aus dem Bezirk aus ca. 20 verschiedenen Herkunftsländern, die Menschen in Kreuzberg jeden Alters und jeder Kultur und Sprache miteinander verbinden möchten durch gemeinsames Musizieren. Wir fordern den Erhalt der Brücke als kulturellen Ort der Begegnung.",2026-07-07,18:30,21:30,18:30 - 21:30,Friedrichshain-Kreuzberg,10967,Admiralbrücke,LOCAL_CIVIC,LOW,20,"",52.4952677,13.4151439,0.8,"",Local civic topic without elevated conflict indicators; The event takes place in the evening
c30440ca73e8c2e1-41,Wir pfeifen auf Stuttgart 21 (vom 13.01. bis 22.12.2026 - jeweils Di.),2026-07-07,18:40,19:15,18:40 - 19:15,Tempelhof-Schöneberg,10785,Potsdamer Platz,OTHER,LOW,20,"",52.5098014,13.3755898,0.8,"",Topic could not be classified precisely; The event takes place in the evening
c30440ca73e8c2e1-42,Sitzstreik und Mahnwache für Menschenrechte im Iran sowie für eine Neubewertung der diplomatischen Beziehungen Verlänge- rung der Mahnwache (vom 01.07. bis 31.07.2026 - täglich),2026-07-08,00:00,23:59,00:00 - 23:59,"",10557,Platz der Republik 1,LABOR_SOCIAL,LOW,15,"",52.5186538,13.3761015,0.8,"","Labor or social topic, usually with low operational risk"
c30440ca73e8c2e1-44,Langandauernder Hungerstreik einer aserbaidschanischen politischen Gefangenen mit der Forderung nach ihrer Freilassung. (vom 05.07. bis 15.07.2026 - täglich),2026-07-08,00:00,00:00,00:00 - 00:00,"",10557,Willy-Brandt-Str. 1,LABOR_SOCIAL,LOW,15,"",52.5201946,13.3691292,0.8,"","Labor or social topic, usually with low operational risk"
c30440ca73e8c2e1-43,Camp zum Behindertengleichstellung- sgesetz für echte Barrierefreiheit. Wir wollen keine Floskeln mehr - anlässlich zur 2. und 3. Lesung und Abstimmung des BGGs. (vom 06.07. bis 10.07.2026 - täglich),2026-07-08,00:00,00:00,00:00 - 00:00,"",10557,Skulpturenpark,OTHER,LOW,10,"",52.5185466,13.3678935,0.8,"",Topic could not be classified precisely
c30440ca73e8c2e1-45,"Eine Demonstration für sichere Schulwege. Wir fördern Tempo 30 an den hoch frequentierten Schulwegen nach dem StVO und weitere verkehrsberuhigende Maßnahmen, um die Sicherheit der Schüler zu gewährleisten.",2026-07-08,07:00,08:00,07:00 - 08:00,Treptow-Köpenick,12439,Schnellerstr. 115,TRANSPORT,LOW,10,"",52.4548293,13.5156246,0.8,"",Transport or infrastructure topic
c30440ca73e8c2e1-46,"Fahrraddemo - Gemeinsam, selbst und sicher zur Schule",2026-07-08,07:20,07:55,07:20 - 07:55,Friedrichshain-Kreuzberg,10969,"",EDUCATION_BUDGET,LOW,20,"",52.5023777,13.4012467,0.3,Reuterplatz (AK) - Weserstr. - Hobrechtstr. - Sonnenallee - Herrmannplatz - Hasenheide - Südstern (ZK-ca. 7.35 Uhr) - Körtestr. - Urbanstr. - Brachvogelstr. - Alexandrinenstr. - Ritterstr. - Ritterstr. 76 (EK-Waldorfschule),Social or budget-related education topic without signs of elevated conflict risk; A march affects more streets than a static assembly
c30440ca73e8c2e1-47,"Sichere Schulwege für alle, selbst und sicher auf dem Fahrrad zur Schule",2026-07-08,07:20,08:00,07:20 - 08:00,Friedrichshain-Kreuzberg,10969,"",TRANSPORT,LOW,20,"",52.5023777,13.4012467,0.3,Oberbaumbrücke/Mühlenstr. (AK) - Oberbaumstr. - Köpenicker Str. - Eisenbahnstr. - Eisenbahnstr. - Lausitzer Platz (ZK) - Waldemarstr. - Mariannenplatz - Mariannenstr. - Rio-Reiser-Platz - Oranienstr. - Oranienplatz - Oranienstr. - Moritzplatz - Prinzenstr. - Ritterstr. - Ritterstr. 76 (EK-Freie Waldorfschule Kreuzberg),Transport or infrastructure topic; A march affects more streets than a static assembly
c30440ca73e8c2e1-48,"Gegen Mieterverdrängung durch sogenannte energetische Sanierungen und Luxussanierungen für unverfälschte Denkmalpflege (vom 15.04. bis 12.07.2026 - jeweils Mi.,Sa., So)",2026-07-08,10:00,18:00,10:00 - 18:00,Reinickendorf,13509,An der Heide,LABOR_SOCIAL,LOW,15,"",52.5927602,13.2994909,0.8,"","Labor or social topic, usually with low operational risk"
c30440ca73e8c2e1-49,"Die Verfolgung von FALUN DAFA / FALUN-GONG Praktizierenden in China beenden, Gerechtigkeit und Wiedergutmachung für alle von der KP Verfolgte (vom 01.01. bis 31.12.2026 - jeweils Mo., Di., Mi., Do., Fr., Sa., So.)",2026-07-08,10:30,13:00,10:30 - 13:00,Mitte,10179,Jannowitzbrücke,OTHER,LOW,10,"",52.5142146,13.4194925,0.8,"",Topic could not be classified precisely
c30440ca73e8c2e1-50,"Protest gegen die fortlaufenden Hinrichtungen unschuldiger Menschen im Iran sowie Erinnerung an die Opfer, die ihr Leben für Freiheit und Menschenrechte verloren haben. (vom 01.07. bis 31.07.2026 - täglich)",2026-07-08,11:00,15:30,11:00 - 15:30,Steglitz-Zehlendorf,14195,Podbielskiallee 67,COUNTER_DEMONSTRATION,HIGH,60,"",52.4609514,13.2999621,0.8,"",Counter-demonstration significantly increases operational risk
c30440ca73e8c2e1-51,Frieden oder Weltkrieg,2026-07-08,11:30,14:00,11:30 - 14:00,Marzahn-Hellersdorf,12627,Alice-Salomon-Platz,UKRAINE_RUSSIA,HIGH,45,"",52.53674,13.605031,0.8,"",Foreign policy topic with potentially high emotional tension
c30440ca73e8c2e1-52,",,Datenbanken",2026-07-08,12:00,13:30,12:00 - 13:30,"",10557,Scheidemannstr. 2,OTHER,LOW,10,"",52.5180019,13.3760968,0.8,"",Topic could not be classified precisely
c30440ca73e8c2e1-53,"Falun Dafa ist gut! – Wahrhaftigkeit, Barmherzigkeit, Nachsicht sind gut! Stoppt die Verfolgung von Falun Gong in China durch die bösartige Kommunistische Partei Chinas! Stoppt den staatlich organisierten Organraub an Falun Gong-Praktizieren- den! Tuidang – Schnell austreten aus allen Organisationen der KP-Chinas! (vom 26.05. bis 24.10.2026 - täglich)",2026-07-08,15:00,17:00,15:00 - 17:00,Treptow-Köpenick,12435,S-Bhf. Treptower Park,FAR_LEFT,HIGH,50,"",52.4919839,13.4624681,0.8,"",Far-left mobilization with moderate conflict potential
c30440ca73e8c2e1-54,",,Lasst die Bäume leben! Kein Luxus Straßenneubau in der Ollenhauerstraße! Kein Rückbau des vorhandenen Radfahrstre- ifens!",2026-07-08,15:30,17:00,15:30 - 17:00,"","","",TRANSPORT,LOW,20,"","","","",S-Bahnhof Waidmannslust - Waidmannsluster Damm - Oraniendamm - Oranienburger Str. - Eichborndamm - Antonyplatz 1 (EK),Transport or infrastructure topic; A march affects more streets than a static assembly
c30440ca73e8c2e1-55,Information/ Kundgebung zum Denkmal für die im Nationalsozialismus ermordeten Sinti und Roma Europas,2026-07-08,16:00,18:00,16:00 - 18:00,"",10557,Simsonweg,LABOR_SOCIAL,LOW,15,"",52.5171646,13.3755794,0.8,"","Labor or social topic, usually with low operational risk"
c30440ca73e8c2e1-56,Besatzer raus aus Palästina. Kriegsverbrecher vor Gericht. Keine Waffenlieferungen an Israel,2026-07-08,17:00,19:00,17:00 - 19:00,Mitte,13347,Leopoldplatz,MIDDLE_EAST,HIGH,55,"",52.5463833,13.3591672,0.8,"",Foreign policy topic with elevated probability of counter-demonstrations
c30440ca73e8c2e1-57,Genossenschafter*innen für Vergesellschaftung,2026-07-08,17:30,21:00,17:30 - 21:00,Tempelhof-Schöneberg,12099,Tempelhofer Damm 227,OTHER,LOW,10,"",52.4555749,13.3856096,0.8,"",Topic could not be classified precisely
c30440ca73e8c2e1-58,"Kein Krieg und keine Kriegshetze gegen Russland! NATO - Hände weg von der Ukraine und anderen Ländern, die in ihrem Fadenkreuz stehen! (vom 03.06. bis 26.08.2026 - jeweils Mi.)",2026-07-08,18:00,19:00,18:00 - 19:00,Mitte,10117,Pariser Platz 2,UKRAINE_RUSSIA,HIGH,45,"",52.515292,13.3781671,0.8,"",Foreign policy topic with potentially high emotional tension
c30440ca73e8c2e1-59,"Wir organisieren eine Demonstration, auf Leid georgischer Aktivistinnen der proeropäischen Proteste aufmerksam zu machen.",2026-07-08,18:00,20:00,18:00 - 20:00,Mitte,10117,Werderscher Markt 1,OTHER,LOW,10,"",52.5139807,13.3998494,0.8,"",Topic could not be classified precisely
c30440ca73e8c2e1-60,Sitzstreik und Mahnwache für Menschenrechte im Iran sowie für eine Neubewertung der diplomatischen Beziehungen Verlänge- rung der Mahnwache (vom 01.07. bis 31.07.2026 - täglich),2026-07-09,00:00,23:59,00:00 - 23:59,"",10557,Platz der Republik 1,LABOR_SOCIAL,LOW,15,"",52.5186538,13.3761015,0.8,"","Labor or social topic, usually with low operational risk"
c30440ca73e8c2e1-62,Langandauernder Hungerstreik einer aserbaidschanischen politischen Gefangenen mit der Forderung nach ihrer Freilassung. (vom 05.07. bis 15.07.2026 - täglich),2026-07-09,00:00,00:00,00:00 - 00:00,"",10557,Willy-Brandt-Str. 1,LABOR_SOCIAL,LOW,15,"",52.5201946,13.3691292,0.8,"","Labor or social topic, usually with low operational risk"
c30440ca73e8c2e1-61,Camp zum Behindertengleichstellung- sgesetz für echte Barrierefreiheit. Wir wollen keine Floskeln mehr - anlässlich zur 2. und 3. Lesung und Abstimmung des BGGs. (vom 06.07. bis 10.07.2026 - täglich),2026-07-09,00:00,00:00,00:00 - 00:00,"",10557,Skulpturenpark,OTHER,LOW,10,"",52.5185466,13.3678935,0.8,"",Topic could not be classified precisely
c30440ca73e8c2e1-63,",,Zukunft nicht verheizen - Gebäudemodernisierungsges- etz stoppen",2026-07-09,07:30,12:00,07:30 - 12:00,"",10557,Heinrich-von-Gagern-Str./ Paul-Löbe-Allee,OTHER,LOW,10,"",52.525641,13.3568311,0.3,"",Topic could not be classified precisely
c30440ca73e8c2e1-64,",,Gesundheit retten – GKV-Reform stoppen",2026-07-09,08:30,10:00,08:30 - 10:00,"",10557,Paul-Löbe-Allee,HEALTHCARE,LOW,10,"",52.5195697,13.3749199,0.8,"",Healthcare topic without elevated conflict indicators
c30440ca73e8c2e1-65,Campus Sanieren! Vorlesung auf der Straße.,2026-07-09,10:00,16:00,10:00 - 16:00,Charlottenburg-Wilmersdorf,10623,Straße des 17. Juni 135,OTHER,LOW,10,"",52.512119,13.3270012,0.8,"",Topic could not be classified precisely
c30440ca73e8c2e1-66,"Die Verfolgung von FALUN DAFA / FALUN-GONG Praktizierenden in China beenden, Gerechtigkeit und Wiedergutmachung für alle von der KP Verfolgte (vom 01.01. bis 31.12.2026 - jeweils Mo., Di., Mi., Do., Fr., Sa., So.)",2026-07-09,10:30,13:00,10:30 - 13:00,Mitte,10179,Jannowitzbrücke,OTHER,LOW,10,"",52.5142146,13.4194925,0.8,"",Topic could not be classified precisely
c30440ca73e8c2e1-67,"Protest gegen die fortlaufenden Hinrichtungen unschuldiger Menschen im Iran sowie Erinnerung an die Opfer, die ihr Leben für Freiheit und Menschenrechte verloren haben. (vom 01.07. bis 31.07.2026 - täglich)",2026-07-09,11:00,15:30,11:00 - 15:30,Steglitz-Zehlendorf,14195,Podbielskiallee 67,COUNTER_DEMONSTRATION,HIGH,60,"",52.4609514,13.2999621,0.8,"",Counter-demonstration significantly increases operational risk
c30440ca73e8c2e1-68,Die Würde des Menschen ist unantastbar,2026-07-09,12:00,16:00,12:00 - 16:00,Mitte,10117,Reichstagufer 2,OTHER,LOW,10,"",52.5202319,13.3854289,0.8,"",Topic could not be classified precisely
c30440ca73e8c2e1-69,Gegen die Menschenrechtsverletzungen in der DVRK. für Glaubensfreiheit - gegen Bomben. Drohnen und Raketen - Auflösung aalr´Konzentrastionslager - für Reis statt Atom (vom 30.04. bis 30.07.2026 - jeweils Do.),2026-07-09,14:00,15:00,14:00 - 15:00,Mitte,10117,Glinkastr. 5-7,FAR_RIGHT,HIGH,60,"",52.5111974,13.3858923,0.8,"",Far-right mobilization with high probability of counter-demonstrations
c30440ca73e8c2e1-70,"Menschenrechte, Demokratie und Freiheit im Iran",2026-07-09,14:00,17:30,14:00 - 17:30,Steglitz-Zehlendorf,14195,Podbielskiallee 67,OTHER_POLITICAL,LOW,20,"",52.4609514,13.2999621,0.8,"",General political topic
c30440ca73e8c2e1-71,"Wedding ohne Waffen (vom 09.07. bis 12.07.2026,Do.,Fr.,Sa.,So.)",2026-07-09,14:00,23:59,14:00 - 23:59,Mitte,13355,Volkspark Humboldthain,OTHER,LOW,10,"",52.5474588,13.3850341,0.8,"",Topic could not be classified precisely
c30440ca73e8c2e1-72,"Falun Dafa ist gut! – Wahrhaftigkeit, Barmherzigkeit, Nachsicht sind gut! Stoppt die Verfolgung von Falun Gong in China durch die bösartige Kommunistische Partei Chinas! Stoppt den staatlich organisierten Organraub an Falun Gong-Praktizieren- den! Tuidang – Schnell austreten aus allen Organisationen der KP-Chinas! (vom 26.05. bis 24.10.2026 - täglich)",2026-07-09,15:00,17:00,15:00 - 17:00,Treptow-Köpenick,12435,S-Bhf. Treptower Park,FAR_LEFT,HIGH,50,"",52.4919839,13.4624681,0.8,"",Far-left mobilization with moderate conflict potential
c30440ca73e8c2e1-73,"Friedliche und freundliche Unterstützung des Nachbarschaftsdialogs. Entgegenwirken von Spaltung und Diskriminierung jeder Art, durch Förderung von friedlicher Kommunikation miteinander, Gleichberechtigung und fundiertem Verständnis für alle Mitmenschen. (vom 08.01. bis 31.12.2026 - jeweils Do.)",2026-07-09,16:00,18:30,16:00 - 18:30,Charlottenburg-Wilmersdorf,10627,Wilmersdorfer Str.,LOCAL_CIVIC,LOW,10,"",52.5066749,13.3066372,0.8,"",Local civic topic without elevated conflict indicators
c30440ca73e8c2e1-74,Mahnwache über die weltweite Abschaffung von Atomwaffen gemäß dem UNO Verbotsvertrag von Atomwaffen vom Januar 2021,2026-07-09,17:00,18:00,17:00 - 18:00,Mitte,10117,Pariser Platz,OTHER,LOW,10,"",52.5163553,13.3786828,0.8,"",Topic could not be classified precisely
c30440ca73e8c2e1-75,"Menschen mit Schildern stehen wegen der aktuellen Lage, der Gesundheitsdiktatur, der Berichterstattungen der Medien, der Kriegstreiberei, der Politik, der Verfolgung Unschuldiger, der Korruption der unkontrollierten Migration und der NGO´s ... (vom 08.01. bis 31.12.2026 - jeweils Do.)",2026-07-09,17:00,18:30,17:00 - 18:30,Tempelhof-Schöneberg,12101,Tempelhofer Damm 99,HEALTHCARE,LOW,10,"",52.4717731,13.3860135,0.8,"",Healthcare topic without elevated conflict indicators
c30440ca73e8c2e1-76,"Öffentliche Forderung nach der unverzüglichen Wiederer- öffnung der am 24. Juli 2024 geschlossenen Gotteshäu- ser in Deutschland und Kritik an staatlichen Maßnahmen, die zu deren Schließung geführt haben, begleitet von gemeinsamen Gebeten (Duʿāʾ), einschließlich des Duʿāʾ Kumayl (vom 02.07. bis 24.09.2026 - jeweils Do.)",2026-07-09,18:00,19:00,18:00 - 19:00,Tempelhof-Schöneberg,12099,Ordensmeisterstr. 5,RELIGIOUS,LOW,20,"",52.4568155,13.3893294,0.8,"","Religious assembly, operational risk depends on context"
c30440ca73e8c2e1-77,Nicht auf unserem Rücken! Protest gegen die Gesundheitskürzungen,2026-07-09,18:00,21:00,18:00 - 21:00,Mitte,13353,Leopoldplatz,HEALTHCARE,LOW,10,"",52.5463833,13.3591672,0.8,"",Healthcare topic without elevated conflict indicators
c30440ca73e8c2e1-80,Sitzstreik und Mahnwache für Menschenrechte im Iran sowie für eine Neubewertung der diplomatischen Beziehungen Verlänge- rung der Mahnwache (vom 01.07. bis 31.07.2026 - täglich),2026-07-10,00:00,23:59,00:00 - 23:59,"",10557,Platz der Republik 1,LABOR_SOCIAL,LOW,15,"",52.5186538,13.3761015,0.8,"","Labor or social topic, usually with low operational risk"
c30440ca73e8c2e1-81,Langandauernder Hungerstreik einer aserbaidschanischen politischen Gefangenen mit der Forderung nach ihrer Freilassung. (vom 05.07. bis 15.07.2026 - täglich),2026-07-10,00:00,00:00,00:00 - 00:00,"",10557,Willy-Brandt-Str. 1,LABOR_SOCIAL,LOW,15,"",52.5201946,13.3691292,0.8,"","Labor or social topic, usually with low operational risk"
c30440ca73e8c2e1-78,Camp zum Behindertengleichstellung- sgesetz für echte Barrierefreiheit. Wir wollen keine Floskeln mehr - anlässlich zur 2. und 3. Lesung und Abstimmung des BGGs. (vom 06.07. bis 10.07.2026 - täglich),2026-07-10,00:00,21:00,00:00 - 21:00,"",10557,Skulpturenpark,OTHER,LOW,10,"",52.5185466,13.3678935,0.8,"",Topic could not be classified precisely
c30440ca73e8c2e1-79,"Wedding ohne Waffen (vom 09.07. bis 12.07.2026,Do.,Fr.,Sa.,So.)",2026-07-10,00:00,23:59,00:00 - 23:59,Mitte,13355,Volkspark Humboldthain,OTHER,LOW,10,"",52.5474588,13.3850341,0.8,"",Topic could not be classified precisely
c30440ca73e8c2e1-82,FridaysForFuture; Klimamahnwache - für die Einhaltung des Pariser Abkommens und generell (vom 03.07. bis 25.12.2026 - jeweils Fr.),2026-07-10,10:00,12:00,10:00 - 12:00,"",10557,Platz der Republik,CLIMATE,LOW,15,"",52.5186753,13.3731249,0.8,"","Climate or environment topic, typically peaceful"
c30440ca73e8c2e1-83,"Die Verfolgung von FALUN DAFA / FALUN-GONG Praktizierenden in China beenden, Gerechtigkeit und Wiedergutmachung für alle von der KP Verfolgte (vom 01.01. bis 31.12.2026 - jeweils Mo., Di., Mi., Do., Fr., Sa., So.)",2026-07-10,10:30,13:00,10:30 - 13:00,Mitte,10179,Jannowitzbrücke,OTHER,LOW,10,"",52.5142146,13.4194925,0.8,"",Topic could not be classified precisely
c30440ca73e8c2e1-84,"Protest gegen die fortlaufenden Hinrichtungen unschuldiger Menschen im Iran sowie Erinnerung an die Opfer, die ihr Leben für Freiheit und Menschenrechte verloren haben. (vom 01.07. bis 31.07.2026 - täglich)",2026-07-10,11:00,15:30,11:00 - 15:30,Steglitz-Zehlendorf,14195,Podbielskiallee 67,COUNTER_DEMONSTRATION,HIGH,60,"",52.4609514,13.2999621,0.8,"",Counter-demonstration significantly increases operational risk
c30440ca73e8c2e1-85,Kein Mensch kein Cent der Bundeswehr,2026-07-10,12:00,14:00,12:00 - 14:00,Mitte,13353,Müllerstr. 147,OTHER,LOW,10,"",52.5468477,13.3576744,0.8,"",Topic could not be classified precisely
c30440ca73e8c2e1-86,Protest gegen die Politik Deutschlands und Europas gegenüber den Taliban sowie für Menschenrechte in Afghanistan,2026-07-10,13:00,15:00,13:00 - 15:00,Mitte,10117,Werderscher Markt 6,FOREIGN_POLICY,MEDIUM,30,"",52.5158087,13.3979948,0.8,"",Foreign policy topic with moderate conflict potential
c30440ca73e8c2e1-87,Gegen die Militarisierung des Gesundheitswesens,2026-07-10,13:00,16:00,13:00 - 16:00,Mitte,13359,Drontheimer Str.,HEALTHCARE,LOW,10,"",52.5573885,13.3769792,0.8,"",Healthcare topic without elevated conflict indicators
c30440ca73e8c2e1-88,"Ihre Kriege nicht auf unserem Rücken- Gegen Rüstungsproduktion, Militarisierung und Sozialabbau.",2026-07-10,14:00,16:00,14:00 - 16:00,"","","",EDUCATION_BUDGET,LOW,20,"","","","","AP mit Auftaktkundgebung Wiesenstr. /Hussitenstr./Grenzstr. (Gehweg vor der dortigen Humboldthain- Grundschule) Hussitenst- raße, - Hussitenstr. - Scheringstr. - Scheringstr. 2 (vor das Werkstor von Rheinmetall.)",Social or budget-related education topic without signs of elevated conflict risk; A march affects more streets than a static assembly
c30440ca73e8c2e1-89,"Ihre Kriege nicht auf unserem Rücken- Gegen Rüstungsproduktion, Militarisierung und Sozialabbau",2026-07-10,14:00,16:00,14:00 - 16:00,Mitte,13357,Wiesenstr./ Grenzstr. 1,EDUCATION_BUDGET,LOW,20,"",52.5495238,13.383904,0.3,"Auftaktkundgebung 14-15 h Wiesenstraße Ecke Grenzstraße, Gehweg vor der dortigen Humboldthain- Grundschule . Hussitenstraße, Scheringstraße vor das Werkstor von Rheinmetall.",Social or budget-related education topic without signs of elevated conflict risk; A march affects more streets than a static assembly
c30440ca73e8c2e1-91,Gegen Speziesismus – Für eine vegane Gesellschaft (vom 05.06. bis 30.10.2026 - jeweils Fr.),2026-07-10,15:00,19:00,15:00 - 19:00,Mitte,10117,Pariser Platz 1,COUNTER_DEMONSTRATION,HIGH,60,"",52.5162699,13.3777034,0.8,"",Counter-demonstration significantly increases operational risk
c30440ca73e8c2e1-90,"Falun Dafa ist gut! – Wahrhaftigkeit, Barmherzigkeit, Nachsicht sind gut! Stoppt die Verfolgung von Falun Gong in China durch die bösartige Kommunistische Partei Chinas! Stoppt den staatlich organisierten Organraub an Falun Gong-Praktizieren- den! Tuidang – Schnell austreten aus allen Organisationen der KP-Chinas! (vom 26.05. bis 24.10.2026 - täglich)",2026-07-10,15:00,17:00,15:00 - 17:00,Treptow-Köpenick,12435,S-Bhf. Treptower Park,FAR_LEFT,HIGH,50,"",52.4919839,13.4624681,0.8,"",Far-left mobilization with moderate conflict potential
c30440ca73e8c2e1-92,",,Fridays for Future: Berlin muss Klimagerecht - Gasausstieg jetzt!",2026-07-10,16:00,18:00,16:00 - 18:00,Charlottenburg-Wilmersdorf,10587,"",CLIMATE,MEDIUM,25,"",52.5179847,13.3169663,0.3,Shakespeareplatz (AK) - Richard-Wagner-Str. - Richard-Wagner-Platz - Alt-Lietzow - Arcostr. - Iburger Ufer - Platz am Iburger Ufer; Höhe Siemenssteg (EK),"Climate or environment topic, typically peaceful; A march affects more streets than a static assembly"
c30440ca73e8c2e1-94,Mahnwache gegen Leerstand,2026-07-10,17:00,19:00,17:00 - 19:00,Tempelhof-Schöneberg,10783,Potsdamer Str. 163,COUNTER_DEMONSTRATION,HIGH,60,"",52.4946453,13.3613444,0.8,"",Counter-demonstration significantly increases operational risk
c30440ca73e8c2e1-93,"Für ein Ende der Besatzung in Palästina, gegen Todesstrafe und Folter palästinensischer Gefangener, Uneingeschr- änkter Zugang humanitärer Hilfe für die Menschen in Gaza und Öffnung aller Zugänge, Stop der Siedlergewalt im Westjordanland und Ostjerusalem, Stop für alle militärische Kooperation inklusive Waffenexporte mit Israel, Schutz von Meinungs-, Versammlungs-und Wissen- schaftsfreiheit. (vom 03.07. bis 25.09.2026 - jeweils Fr.)",2026-07-10,17:00,18:15,17:00 - 18:15,Friedrichshain-Kreuzberg,10961,Blücherplatz 1,MIDDLE_EAST,HIGH,55,"",52.4965672,13.3924936,0.8,"",Foreign policy topic with elevated probability of counter-demonstrations
c30440ca73e8c2e1-95,",,Ehrung der internationalen Spanienkämpfer aus Anlass des 90. Jahrestags des Beginns des Spanischen Bürgerkriegs",2026-07-10,18:00,19:00,18:00 - 19:00,Friedrichshain-Kreuzberg,10249,Friedenstr.,UKRAINE_RUSSIA,HIGH,45,"",52.5213628,13.4363693,0.8,"",Foreign policy topic with potentially high emotional tension
c30440ca73e8c2e1-96,Vor 92 Jahren wurde Erich Mühsam von den Nazis ermordet!,2026-07-10,18:00,19:30,18:00 - 19:30,Neukölln,12359,Dörchläuchtingstr. 52,OTHER,LOW,10,"",52.446749,13.4472341,0.8,"",Topic could not be classified precisely
c30440ca73e8c2e1-97,Tag der Solidarität mit Juden und Israel - Bildung einer Menschenkette in Form eines Davidsterns,2026-07-10,18:00,20:00,18:00 - 20:00,Mitte,10117,Pariser Platz,EDUCATION_BUDGET,LOW,10,"",52.5163553,13.3786828,0.8,"",Social or budget-related education topic without signs of elevated conflict risk
c30440ca73e8c2e1-98,Solidarisch gegen Antisemitismus. Mahnwache zum Schutz jüdischen Lebens. (vom 03.07. bis 23.10.2026 - jeweils Fr.),2026-07-10,18:30,20:00,18:30 - 20:00,Friedrichshain-Kreuzberg,10999,Fraenkelufer 10,MIDDLE_EAST,VERY_HIGH,65,"",52.4960226,13.416844,0.8,"",Foreign policy topic with elevated probability of counter-demonstrations; The event takes place in the evening
c30440ca73e8c2e1-99,Ihr schiebt ´n Film im Internet; wir schau´n ´n Film im Park,2026-07-10,19:30,23:59,19:30 - 23:59,"","","",CULTURAL,LOW,15,"","","","","",Cultural topic with low operational risk; The event takes place in the evening
c30440ca73e8c2e1-101,Sitzstreik und Mahnwache für Menschenrechte im Iran sowie für eine Neubewertung der diplomatischen Beziehungen Verlänge- rung der Mahnwache (vom 01.07. bis 31.07.2026 - täglich),2026-07-11,00:00,23:59,00:00 - 23:59,"",10557,Platz der Republik 1,LABOR_SOCIAL,LOW,15,"",52.5186538,13.3761015,0.8,"","Labor or social topic, usually with low operational risk"
c30440ca73e8c2e1-102,Langandauernder Hungerstreik einer aserbaidschanischen politischen Gefangenen mit der Forderung nach ihrer Freilassung. (vom 05.07. bis 15.07.2026 - täglich),2026-07-11,00:00,00:00,00:00 - 00:00,"",10557,Willy-Brandt-Str. 1,LABOR_SOCIAL,LOW,15,"",52.5201946,13.3691292,0.8,"","Labor or social topic, usually with low operational risk"
c30440ca73e8c2e1-100,"Wedding ohne Waffen (vom 09.07. bis 12.07.2026,Do.,Fr.,Sa.,So.)",2026-07-11,00:00,23:59,00:00 - 23:59,Mitte,13355,Volkspark Humboldthain,OTHER,LOW,10,"",52.5474588,13.3850341,0.8,"",Topic could not be classified precisely
c30440ca73e8c2e1-103,"Gegen Mieterverdrängung durch sogenannte energetische Sanierungen und Luxussanierungen für unverfälschte Denkmalpflege (vom 15.04. bis 12.07.2026 - jeweils Mi.,Sa., So)",2026-07-11,10:00,18:00,10:00 - 18:00,Reinickendorf,13509,An der Heide,LABOR_SOCIAL,LOW,15,"",52.5927602,13.2994909,0.8,"","Labor or social topic, usually with low operational risk"
c30440ca73e8c2e1-106,"Protest gegen die fortlaufenden Hinrichtungen unschuldiger Menschen im Iran sowie Erinnerung an die Opfer, die ihr Leben für Freiheit und Menschenrechte verloren haben. (vom 01.07. bis 31.07.2026 - täglich)",2026-07-11,11:00,15:30,11:00 - 15:30,Steglitz-Zehlendorf,14195,Podbielskiallee 67,COUNTER_DEMONSTRATION,HIGH,60,"",52.4609514,13.2999621,0.8,"",Counter-demonstration significantly increases operational risk
c30440ca73e8c2e1-104,Muslime für Frieden Aktion (vom 04.04.2026 bis 03.04.2027 - jeweils ),2026-07-11,11:00,15:00,11:00 - 15:00,Steglitz-Zehlendorf,14163,S-Bhf. Zehlendorf,OTHER_POLITICAL,LOW,20,"",52.4322834,13.2588918,0.8,"",General political topic
c30440ca73e8c2e1-105,Muslime für Frieden (vom 27.06. bis 25.07.2026 - jeweils Sa.),2026-07-11,11:00,15:00,11:00 - 15:00,Pankow,13187,Garbátyplatz,OTHER_POLITICAL,LOW,20,"",52.5673358,13.4113053,0.8,"",General political topic
c30440ca73e8c2e1-108,Ohne JESUS kein Frieden (vom 10.01.2026 bis 31.12.2027 - jeweils Sa.),2026-07-11,12:00,15:00,12:00 - 15:00,Friedrichshain-Kreuzberg,10999,Reichenberger Str. 176,OTHER_POLITICAL,LOW,20,"",52.4998432,13.4172642,0.8,"",General political topic
c30440ca73e8c2e1-109,Ohne JESUS kein Frieden (vom 17.01. bis 31.12.2026 - jeweils Sa.),2026-07-11,12:00,15:00,12:00 - 15:00,"","","",OTHER_POLITICAL,LOW,20,"","","","","",General political topic
c30440ca73e8c2e1-110,Ohne JESUS kein Frieden (vom 24.01. bis 31.12.2026 - jeweils Sa.),2026-07-11,12:00,15:00,12:00 - 15:00,Mitte,13347,Leopoldplatz,OTHER_POLITICAL,LOW,20,"",52.5463833,13.3591672,0.8,"",General political topic
c30440ca73e8c2e1-107,"Die Verfolgung von FALUN DAFA / FALUN-GONG Praktizierenden in China beenden, Gerechtigkeit und Wiedergutmachung für alle von der KP Verfolgte (vom 01.01. bis 31.12.2026 - jeweils Mo., Di., Mi., Do., Fr., Sa., So.)",2026-07-11,12:00,14:30,12:00 - 14:30,Mitte,10179,Jannowitzbrücke,OTHER,LOW,10,"",52.5142146,13.4194925,0.8,"",Topic could not be classified precisely
c30440ca73e8c2e1-111,Mahnwache für den Frieden (vom 10.01. bis 26.12.2026 - jeweils Sa.),2026-07-11,13:00,15:00,13:00 - 15:00,Mitte,10117,Bebelplatz 2,OTHER_POLITICAL,LOW,20,"",52.5164723,13.3930752,0.8,"",General political topic
c30440ca73e8c2e1-112,Niemand tanzt allein - Community statt Isolation,2026-07-11,13:00,21:00,13:00 - 21:00,"","","",OTHER,LOW,10,"","","","","",Topic could not be classified precisely
c30440ca73e8c2e1-117,Gegen Speziesismus – Für eine vegane Gesellschaft (vom 06.06. bis 31.10.2026 - jeweils Sa.),2026-07-11,14:00,18:00,14:00 - 18:00,Mitte,10117,Pariser Platz,COUNTER_DEMONSTRATION,HIGH,60,"",52.5163553,13.3786828,0.8,"",Counter-demonstration significantly increases operational risk
c30440ca73e8c2e1-120,Wedding ohne Waffen. Gemeinsam gegen Krieg.,2026-07-11,14:00,20:00,14:00 - 20:00,Reinickendorf,"","",UKRAINE_RUSSIA,HIGH,55,"","","","",Hanne-Sobek Platz - Badstr. - Brunnenstr. - Gustav-Meyer-Allee - Scheringstr. (ZK) - Gartenstr. - Gerichtstr. - Marta-Ndumbe-Platz (ZK) - Reinickendorferstr. - Schererstr. (ZK) - Maxstr. - Antonstr. - Prinz-Eugen-Str. - Schulstr. - Leopoldplatz,Foreign policy topic with potentially high emotional tension; A march affects more streets than a static assembly
c30440ca73e8c2e1-118,"Falun Dafa ist gut! – Wahrhaftigkeit, Barmherzigkeit, Nachsicht sind gut! Stoppt die Verfolgung von Falun Gong in China durch die bösartige Kommunistische Partei Chinas! Stoppt den staatlich organisierten Organraub an Falun Gong-Praktizierenden! Tuidang – Schnell austreten aus allen Organisationen der KP-Chinas! (vom 23.05. bis 24.10.2026 - jeweils Sa.)",2026-07-11,14:00,18:30,14:00 - 18:30,Mitte,10117,Pariser Platz,FAR_LEFT,HIGH,50,"",52.5163553,13.3786828,0.8,"",Far-left mobilization with moderate conflict potential
c30440ca73e8c2e1-119,"In der Liebe von und zu Gott liegt Frieden für alle Völker und Einheit der Menschen. Jeder gewaltvolle, stolze, selbstverherrlichende sowie kriegerische Akt, wie der in Israel oder in der Ukraine, ist gegen Gottes Willen und nicht zu unterstützen. Aber auch Werte und politische Entscheidungen brauchen eine Neuausrichtung auf die natürliche und gute moralische Ordnung, wie Gott sie in der Bibel gegeben hat.",2026-07-11,14:00,20:00,14:00 - 20:00,Mitte,10178,Alexanderplatz,UKRAINE_RUSSIA,HIGH,45,"",52.5219814,13.4136358,0.8,"",Foreign policy topic with potentially high emotional tension
c30440ca73e8c2e1-115,Gehmeditation in Frieden für Frieden,2026-07-11,14:00,16:00,14:00 - 16:00,"","","",FOREIGN_POLICY,MEDIUM,40,"","","","",Agnes-Sorma-Park (AK) - Albrechtstr. - Albrechtstr. 26 Schiffbauerdamm - Weidendammer Brücke - Reichstagsufer - Neustädtische Kirchstr. - Unter den Linden - Unter den Linden 63-65 an Botschaft der Russischen Föderation (ZK) - Unter den Linden - Wilhelmstr. - Luisenstr. - Reinhardtstr. - Albrechtstr. - Albrechtstr. 26 (an der ukrainischen Botschaft) (EK),Foreign policy topic with moderate conflict potential; A march affects more streets than a static assembly
c30440ca73e8c2e1-114,"PRÜF BERLIN, PRÜF! - Demokratie schützen",2026-07-11,14:00,16:00,14:00 - 16:00,Mitte,10117,Pariser Platz,OTHER_POLITICAL,LOW,20,"",52.5163553,13.3786828,0.8,"",General political topic
c30440ca73e8c2e1-116,"Straßen für die Menschen - Straßen als Begegnungsraum zum Spielen, Aufenthalt und Tanzen",2026-07-11,14:00,18:00,14:00 - 18:00,Friedrichshain-Kreuzberg,10961,Bergmannstr. 64,OTHER,LOW,10,"",52.4891604,13.4018807,0.8,"",Topic could not be classified precisely
c30440ca73e8c2e1-113,"„Musikalische Versammlung für Frieden, Verständigung und gesellschaftlichen Zusammenhalt – gemeinsames Singen als Ausdruck für Gewaltfreiheit, Dialogbereitschaft und ein respektvolles Miteinander.“ (vom 25.04. bis 31.12.2026 - jeweils Sa.)",2026-07-11,14:00,15:45,14:00 - 15:45,Charlottenburg-Wilmersdorf,10627,Wilmersdorfer Str. 118,CULTURAL,LOW,5,"",52.508082,13.306469,0.8,"",Cultural topic with low operational risk
c30440ca73e8c2e1-121,"Falun Dafa ist gut! – Wahrhaftigkeit, Barmherzigkeit, Nachsicht sind gut! Stoppt die Verfolgung von Falun Gong in China durch die bösartige Kommunistische Partei Chinas! Stoppt den staatlich organisierten Organraub an Falun Gong-Praktizieren- den! Tuidang – Schnell austreten aus allen Organisationen der KP-Chinas! (vom 26.05. bis 24.10.2026 - täglich)",2026-07-11,15:00,17:00,15:00 - 17:00,Treptow-Köpenick,12435,S-Bhf. Treptower Park,FAR_LEFT,HIGH,50,"",52.4919839,13.4624681,0.8,"",Far-left mobilization with moderate conflict potential
c30440ca73e8c2e1-122,Frieden Freiheit Souveränität (vom 04.07. bis 25.07.2026 - jeweils Sa.),2026-07-11,15:00,17:00,15:00 - 17:00,Mitte,10117,Pariser Platz,OTHER_POLITICAL,LOW,20,"",52.5163553,13.3786828,0.8,"",General political topic
c30440ca73e8c2e1-123,",,Tierschutz / gegen Massentierhaltung",2026-07-11,16:00,18:00,16:00 - 18:00,Charlottenburg-Wilmersdorf,10627,Wilmersdorfer Str. 46,COUNTER_DEMONSTRATION,HIGH,60,"",52.5091104,13.3046728,0.8,"",Counter-demonstration significantly increases operational risk
c30440ca73e8c2e1-124,36 Jahre und es wird noch heißer - R94 Kundgebung,2026-07-11,17:00,23:59,17:00 - 23:59,Friedrichshain-Kreuzberg,10247,Rigaer Str. 93,OTHER,LOW,10,"",52.5177555,13.4581799,0.8,"",Topic could not be classified precisely
c30440ca73e8c2e1-126,Sitzstreik und Mahnwache für Menschenrechte im Iran sowie für eine Neubewertung der diplomatischen Beziehungen Verlänge- rung der Mahnwache (vom 01.07. bis 31.07.2026 - täglich),2026-07-12,00:00,23:59,00:00 - 23:59,"",10557,Platz der Republik 1,LABOR_SOCIAL,LOW,15,"",52.5186538,13.3761015,0.8,"","Labor or social topic, usually with low operational risk"
c30440ca73e8c2e1-127,Langandauernder Hungerstreik einer aserbaidschanischen politischen Gefangenen mit der Forderung nach ihrer Freilassung. (vom 05.07. bis 15.07.2026 - täglich),2026-07-12,00:00,00:00,00:00 - 00:00,"",10557,Willy-Brandt-Str. 1,LABOR_SOCIAL,LOW,15,"",52.5201946,13.3691292,0.8,"","Labor or social topic, usually with low operational risk"
c30440ca73e8c2e1-125,"Wedding ohne Waffen (vom 09.07. bis 12.07.2026,Do.,Fr.,Sa.,So.)",2026-07-12,00:00,18:00,00:00 - 18:00,Mitte,13355,Volkspark Humboldthain,OTHER,LOW,10,"",52.5474588,13.3850341,0.8,"",Topic could not be classified precisely
c30440ca73e8c2e1-128,"Gegen Mieterverdrängung durch sogenannte energetische Sanierungen und Luxussanierungen für unverfälschte Denkmalpflege (vom 15.04. bis 12.07.2026 - jeweils Mi.,Sa., So)",2026-07-12,10:00,18:00,10:00 - 18:00,Reinickendorf,13509,An der Heide,LABOR_SOCIAL,LOW,15,"",52.5927602,13.2994909,0.8,"","Labor or social topic, usually with low operational risk"
c30440ca73e8c2e1-129,Gegen Gregor Gysis Einladung an Naziband Freiwild im Kino Colluseum...,2026-07-12,10:30,14:00,10:30 - 14:00,Pankow,10437,Schönhauser Allee 123,COUNTER_DEMONSTRATION,HIGH,60,"",52.5479337,13.4121388,0.8,"",Counter-demonstration significantly increases operational risk
c30440ca73e8c2e1-130,Dies ist eine Demonstration gegen die Zerstörung des Nationalparks Zvernec in Albanien,2026-07-12,11:00,14:00,11:00 - 14:00,Friedrichshain-Kreuzberg,10969,Friedrichstr. 231,COUNTER_DEMONSTRATION,HIGH,60,"",52.5029601,13.3907772,0.8,"",Counter-demonstration significantly increases operational risk
c30440ca73e8c2e1-132,Wir informieren über die aktuelle Lage in Gaza. Für einen Stopp aller Waffenexporte und militärischer Kooperation mit Israel. Für eine Aussetzung des Assoziierungsabkommens zwischen der Europäischen Union und Israel. Für einen gerechten Frieden in Nahost! (vom 07.06. bis 31.07.2026 - jeweils So.),2026-07-12,11:00,18:00,11:00 - 18:00,Pankow,10437,Eberswalder Str.,MIDDLE_EAST,HIGH,55,"",52.5415154,13.4121769,0.8,"",Foreign policy topic with elevated probability of counter-demonstrations
c30440ca73e8c2e1-131,Fahrraddemo für sichere Fahrradwege,2026-07-12,11:00,14:30,11:00 - 14:30,"","","",TRANSPORT,LOW,20,"","","","","Carl-Zuckmayer-Brücke - Innsbrucker Str. - Badensche Str. - Berliner Str. - Brandenburgische Str. - Fehrbelliner Platz - Brandenburgische Str. - Kurfürstendamm - Rathenauplatz (1x umrunden) - Halenseestr. - Messedamm - Jafféstr. - Heerstr. - Preußenallee - Olympische Str. - Trakehner Allee (ZK am Nordeingang S-Bhf. Olympiastadion) - Jesse-Owens-Allee - Passenheimer Str. - Heerstr. - Jaczostr. - Sandheideweg - Weinmeisterhornweg - Gatower Str. - Alt-Gatow (Grünfläche 1x umrunden, dann ZK) - Kladower Damm - Ritterfelddamm - Uferpromenade - verlängerte Uferpromenade",Transport or infrastructure topic; A march affects more streets than a static assembly
c30440ca73e8c2e1-133,"Die Verfolgung von FALUN DAFA / FALUN-GONG Praktizierenden in China beenden, Gerechtigkeit und Wiedergutmachung für alle von der KP Verfolgte (vom 01.01. bis 31.12.2026 - jeweils Mo., Di., Mi., Do., Fr., Sa., So.)",2026-07-12,12:00,14:30,12:00 - 14:30,Mitte,10179,Jannowitzbrücke,OTHER,LOW,10,"",52.5142146,13.4194925,0.8,"",Topic could not be classified precisely
c30440ca73e8c2e1-134,Animal Rights Square: Video-Aktion zur Aufklärung über die Tierindustrie,2026-07-12,12:00,16:00,12:00 - 16:00,Friedrichshain-Kreuzberg,10999,Hobrechtbrücke,OTHER,LOW,10,"",52.4936496,13.4284216,0.8,"",Topic could not be classified precisely
c30440ca73e8c2e1-135,"Protest gegen die fortlaufenden Hinrichtungen unschuldiger Menschen im Iran sowie Erinnerung an die Opfer, die ihr Leben für Freiheit und Menschenrechte verloren haben. (vom 01.07. bis 31.07.2026 - täglich)",2026-07-12,13:00,15:00,13:00 - 15:00,Steglitz-Zehlendorf,14195,Podbielskiallee 67,COUNTER_DEMONSTRATION,HIGH,60,"",52.4609514,13.2999621,0.8,"",Counter-demonstration significantly increases operational risk
c30440ca73e8c2e1-136,Stoppt den Genozid in Palästina durch Israel. Die Deutsche Regierung ist der zweitgrößte Waffenlieferant Israels und damit Mittäter an dessen Verbrechen.,2026-07-12,13:00,17:00,13:00 - 17:00,Friedrichshain-Kreuzberg,10245,Grünberger Str. 71,MIDDLE_EAST,HIGH,55,"",52.5114516,13.4593628,0.8,"",Foreign policy topic with elevated probability of counter-demonstrations
c30440ca73e8c2e1-137,"Falun Dafa ist gut! – Wahrhaftigkeit, Barmherzigkeit, Nachsicht sind gut! Stoppt die Verfolgung von Falun Gong in China durch die bösartige Kommunistische Partei Chinas! Stoppt den staatlich organisierten Organraub an Falun Gong-Praktizieren- den! Tuidang – Schnell austreten aus allen Organisationen der KP-Chinas! (vom 10.05. bis 25.10.2026 - jeweils So.)",2026-07-12,13:00,18:00,13:00 - 18:00,Treptow-Köpenick,12435,Am Treptower Park,FAR_LEFT,HIGH,50,"",52.4859358,13.4661606,0.8,"",Far-left mobilization with moderate conflict potential
c30440ca73e8c2e1-139,",,Gedenken an den ersten Jahrestag der Gewaltverbrechen im Juli 2025 in Suwaida (Süd-Syrien) gegen die drusische Gemeinschaft",2026-07-12,14:00,18:00,14:00 - 18:00,"","","",COUNTER_DEMONSTRATION,VERY_HIGH,70,"","","","",Platz der Republik (AK vor dem Reichstagsgebäude) - Scheidemannstr. - Ebertstr. - Pariser Platz,Counter-demonstration significantly increases operational risk; A march affects more streets than a static assembly
c30440ca73e8c2e1-138,360.000 Menschen fordern Rücktritt von Friedrich Merz,2026-07-12,14:00,18:00,14:00 - 18:00,"","","",OTHER,LOW,20,"","","","",Pariser Platz (AK) - Unter den Linden (ZK ZDF Hauptstadtstudio) - Wilhelmstr. 67a (ZK ARD Hauptstadtstudio) - Platz der Republik (ZK vor dem Reichstagsgebäude) - Willy-Brandt-Str. (EK vor dem Bundeskanzleramt) ->vol- lständige Strecke angefordert,Topic could not be classified precisely; A march affects more streets than a static assembly
c30440ca73e8c2e1-140,"Kürzungen, Nachbarschaftsvernetzung, Leerstand",2026-07-12,14:00,19:00,14:00 - 19:00,Steglitz-Zehlendorf,12163,Ahornstr. 10,LOCAL_CIVIC,LOW,10,"",52.4616346,13.3213687,0.8,"",Local civic topic without elevated conflict indicators
c30440ca73e8c2e1-142,"Falun Dafa ist gut! – Wahrhaftigkeit, Barmherzigkeit, Nachsicht sind gut! Stoppt die Verfolgung von Falun Gong in China durch die bösartige Kommunistische Partei Chinas! Stoppt den staatlich organisierten Organraub an Falun Gong-Praktizieren- den! Tuidang – Schnell austreten aus allen Organisationen der KP-Chinas! (vom 26.05. bis 24.10.2026 - täglich)",2026-07-12,15:00,17:00,15:00 - 17:00,Treptow-Köpenick,12435,S-Bhf. Treptower Park,FAR_LEFT,HIGH,50,"",52.4919839,13.4624681,0.8,"",Far-left mobilization with moderate conflict potential
c30440ca73e8c2e1-141,"Krieg ist nie die einzige Wahl, aber immer die schlechteste. Mittels Flashmob bringen wir den Schrecken jeden Krieges zurück in die Öffentlichkeit und wollen zum Nachdenken und Gesprächen anregen. (vom 04.01. bis 20.12.2026 - jeweils So.)",2026-07-12,15:00,17:00,15:00 - 17:00,Mitte,10117,Pariser Platz 1,LOCAL_CIVIC,LOW,10,"",52.5162699,13.3777034,0.8,"",Local civic topic without elevated conflict indicators
c30440ca73e8c2e1-143,Internationalist Trans Pride,2026-07-12,16:00,21:00,16:00 - 21:00,"","","",OTHER,LOW,20,"","","","",Mariannenplatz auf Höhe Muskauer Str. (AK) - Mariannenstr. - Oranienstr. - Oranienplatz (ZK) - Oranienstr. - Moritzplatz - Prinzenstr. - U-Bhf. Prinzenstr (ZK)- Gitschiner Str. - Wassertorplatz - Skalitzer Str. - Kottbusser Str. - Kottbusser Brücke (ZK) - Graefestr. - Hasenheide - Südstern (EK),Topic could not be classified precisely; A march affects more streets than a static assembly
c30440ca73e8c2e1-145,Sitzstreik und Mahnwache für Menschenrechte im Iran sowie für eine Neubewertung der diplomatischen Beziehungen Verlänge- rung der Mahnwache (vom 01.07. bis 31.07.2026 - täglich),2026-07-13,00:00,23:59,00:00 - 23:59,"",10557,Platz der Republik 1,LABOR_SOCIAL,LOW,15,"",52.5186538,13.3761015,0.8,"","Labor or social topic, usually with low operational risk"
c30440ca73e8c2e1-146,Langandauernder Hungerstreik einer aserbaidschanischen politischen Gefangenen mit der Forderung nach ihrer Freilassung. (vom 05.07. bis 15.07.2026 - täglich),2026-07-13,00:00,00:00,00:00 - 00:00,"",10557,Willy-Brandt-Str. 1,LABOR_SOCIAL,LOW,15,"",52.5201946,13.3691292,0.8,"","Labor or social topic, usually with low operational risk"
c30440ca73e8c2e1-144,"„Save the Bees, Rave the World, Bring the Mothership Back on Track“ (vom 26.06. bis 26.08.2026 - täglich)",2026-07-13,00:00,23:59,00:00 - 23:59,Mitte,10179,Wallstr. 4,OTHER,LOW,10,"",52.5110953,13.4037831,0.8,"",Topic could not be classified precisely
c30440ca73e8c2e1-147,"Die Verfolgung von FALUN DAFA / FALUN-GONG Praktizierenden in China beenden, Gerechtigkeit und Wiedergutmachung für alle von der KP Verfolgte (vom 01.01. bis 31.12.2026 - jeweils Mo., Di., Mi., Do., Fr., Sa., So.)",2026-07-13,10:30,13:00,10:30 - 13:00,Mitte,10179,Jannowitzbrücke,OTHER,LOW,10,"",52.5142146,13.4194925,0.8,"",Topic could not be classified precisely
c30440ca73e8c2e1-148,"Protest gegen die fortlaufenden Hinrichtungen unschuldiger Menschen im Iran sowie Erinnerung an die Opfer, die ihr Leben für Freiheit und Menschenrechte verloren haben. (vom 01.07. bis 31.07.2026 - täglich)",2026-07-13,11:00,15:30,11:00 - 15:30,Steglitz-Zehlendorf,14195,Podbielskiallee 67,COUNTER_DEMONSTRATION,HIGH,60,"",52.4609514,13.2999621,0.8,"",Counter-demonstration significantly increases operational risk
c30440ca73e8c2e1-149,"Mahnwache vor dem RKI. Kritisiert wird die Rolle des RKI im Zusammenhang mit der Corona-Hysterie und den dadurch begründeten Menschenrechtsverletzungen. Es besteht weiterhin die Forderung nach Erfüllung der Informationspflicht als Regierungsbehörde. Ferner ist bislang keinerlei Bemühung um Aufarbeitung der begangenen Rechtsbrüche zu erkennen. Da zudem längst Vorbereitungen für die nächste Pandemiesimulation angelaufen sind, ist ein Ende der Notwendigkeit der Mahnwache nicht abzusehen. (vom 01.09.2025 bis 31.08.2026 - jeweils Mo.)",2026-07-13,12:00,14:00,12:00 - 14:00,Mitte,13353,Nordufer 20,LABOR_SOCIAL,LOW,15,"",52.5395724,13.3468259,0.8,"","Labor or social topic, usually with low operational risk"
c30440ca73e8c2e1-150,Diskurs üben - Menschlichkeit bewahren - Frieden lernen! (vom 05.01. bis 28.12.2026 - jeweils ),2026-07-13,14:00,19:00,14:00 - 19:00,Pankow,13086,Antonplatz 1,OTHER_POLITICAL,LOW,20,"",52.5488199,13.4509296,0.8,"",General political topic
c30440ca73e8c2e1-151,"Falun Dafa ist gut! – Wahrhaftigkeit, Barmherzigkeit, Nachsicht sind gut! Stoppt die Verfolgung von Falun Gong in China durch die bösartige Kommunistische Partei Chinas! Stoppt den staatlich organisierten Organraub an Falun Gong-Praktizieren- den! Tuidang – Schnell austreten aus allen Organisationen der KP-Chinas! (vom 26.05. bis 24.10.2026 - täglich)",2026-07-13,15:00,17:00,15:00 - 17:00,Treptow-Köpenick,12435,S-Bhf. Treptower Park,FAR_LEFT,HIGH,50,"",52.4919839,13.4624681,0.8,"",Far-left mobilization with moderate conflict potential
c30440ca73e8c2e1-152,Mahnwache für Frieden und Menschenrechte weltweit (vom 02.03. bis 26.10.2026 - jeweils Mo.),2026-07-13,16:00,17:30,16:00 - 17:30,Mitte,10117,Pariser Platz 2,OTHER_POLITICAL,LOW,20,"",52.515292,13.3781671,0.8,"",General political topic
c30440ca73e8c2e1-153,Ausbau des Tiergartentunnels,2026-07-13,16:00,18:00,16:00 - 18:00,Tempelhof-Schöneberg,10785,Potsdamer Brücke,OTHER,LOW,10,"",52.5060089,13.3684777,0.8,"",Topic could not be classified precisely
c30440ca73e8c2e1-155,Weg mit Hartz 4 und dem Bürgergeldbetrug! - Aktiver Widerstand gegen einen 3. Weltkrieg! - Montag ist Tag des Widerstands! (vom 05.01.2026 bis 05.01.2027 - jeweils Mo.),2026-07-13,17:45,20:00,17:45 - 20:00,Mitte,10178,Alexanderplatz 1,UKRAINE_RUSSIA,HIGH,45,"",52.5215058,13.4123809,0.8,"",Foreign policy topic with potentially high emotional tension
c30440ca73e8c2e1-154,"Für Frieden, Freiheit und Selbstbestimmung (vom 05.01. bis 28.12.2026 - jeweils Mo.)",2026-07-13,17:45,19:30,17:45 - 19:30,Steglitz-Zehlendorf,14163,Kirchstr. 1,OTHER_POLITICAL,LOW,20,"",52.4333344,13.2579626,0.8,"",General political topic
c30440ca73e8c2e1-157,Fortsetzung unserer Antikriegsmahnwachen (vom 31.03. bis 31.12.2026 - jeweils Mo.),2026-07-13,18:00,19:00,18:00 - 19:00,Mitte,10178,Alexanderplatz 1,UKRAINE_RUSSIA,HIGH,45,"",52.5215058,13.4123809,0.8,"",Foreign policy topic with potentially high emotional tension
c30440ca73e8c2e1-161,"WELTFRIEDEN Frieden im Innen macht Frieden im Außen. Wir stehen: - Für die sofortige Beendigung aller Kriege und kriegerischen Maßnahmen weltweit. - Für bedingubgslose Menschenrechte. Die Würde jedes Menschen ist unantastbar. - Für Frieden in der Ukraine und Frieden mit Russland. - Ganz besonders liegt und der Frieden und die Beendigung des Genozids im Nahen Osten am Herzen. Für den Frieden in der Welt, braucht es Menschen mit Frieden im Herzen. Wir brauchen Brücken. Und wir brauchen Mut. Mut zur Liebe. (vom 01.12.2025 bis 30.11.2026 - jeweils Mo.)",2026-07-13,18:00,22:00,18:00 - 22:00,Tempelhof-Schöneberg,10785,Potsdamer Platz,UKRAINE_RUSSIA,HIGH,45,"",52.5098014,13.3755898,0.8,"",Foreign policy topic with potentially high emotional tension
c30440ca73e8c2e1-156,Frieden schaffen ohne Waffen (vom 05.01. bis 21.12.2026 - jeweils Mo.),2026-07-13,18:00,19:00,18:00 - 19:00,"","","",OTHER_POLITICAL,MEDIUM,30,"","","","",Alt-Müggelheim 17 (AP auf dem Dorfanger) - Müggelheimer Damm - Müggelheimer Damm 244 - Müggelheimer Damm - Alt-Müggelheim 17 (EP auf dem Dorfanger),General political topic; A march affects more streets than a static assembly
c30440ca73e8c2e1-159,"Nachbarschaftlich zusammen für uneingeschränkte Grundr- echte und Friedenspolitik, gegen ID 2020, die Agenda 2030, und das globale WHO Pandemie- Diktat! Für uneingeschränkte Menschenrechte! (vom 19.01. bis 28.12.2026 - jeweils Mo.) (vom 19.01. bis 28.12.2026 - jeweils Mo.)",2026-07-13,18:00,20:00,18:00 - 20:00,Tempelhof-Schöneberg,"","",OTHER_POLITICAL,MEDIUM,30,"","","","",John-F.-Kennedy-Platz (Rathaus Schöneberg) - Belziger Str. - Heinrich-Lassen-Park - Hauptstr. - Akazienstr. - Apostel-Paulus-Kirche (ZK) - Goltzstr. - Winterfeldplatz - Maaßenstr. (ZK) - Nollendorfplatz - Winterfeldplatz,General political topic; A march affects more streets than a static assembly
c30440ca73e8c2e1-158,Aufarbeitung der Coronamaßnahmen Frieden- Keine Waffen in Kriegsgebiete (vom 05.01. bis 28.12.2026 - jeweils Mo.),2026-07-13,18:00,20:00,18:00 - 20:00,Charlottenburg-Wilmersdorf,"","",LABOR_SOCIAL,MEDIUM,25,"","","","",Wilmersdorfer Str./Ecke Krumme Str. - (AK) - Wilmersdorfer Str. - Schillerstr. - wenden - Wilmersdorfer Str. (ZK vor Lidl) - Wilmersdorfer Str. 55 - wenden - Wilmersdorfer Str. - Goethestr. (EK),"Labor or social topic, usually with low operational risk; A march affects more streets than a static assembly"
c30440ca73e8c2e1-160,"TEGEL steht AUF - für die bedingungslose Einhaltung aller Grundrechte, - für sofortigen Waffenstillstand und Diplomatie statt Waffenlieferungen und Kriegstreiberei, - für das Grundrecht auf Barzahlung und das Recht auf ein analoges Leben, - für die Bewahrung des Mittelstands vor Zerschlagung und Deindustriealisierung, - für eine Politik frei von Lobbyismus und Korruption, - für die vollständige und unabhängige Aufarbeitung der Corona-Maßnahmen - Für echte Mitbestimmung der Bevölkerung und eine rechtlich konsequente Politikerhaftung (vom 02.03. bis 12.10.2026 - jeweils Mo.)",2026-07-13,18:00,20:30,18:00 - 20:30,Mitte,"","",LABOR_SOCIAL,MEDIUM,25,"","","","",Alt- Tege 2 (Am Schinkelbrunnen) (Wöche- ntlich wechslende Aufzugsstrecken),"Labor or social topic, usually with low operational risk; A march affects more streets than a static assembly"
c30440ca73e8c2e1-162,"Mahnwache: FLUGLÄRM UND FEINSTAUB MACHEN KRANK! Konsequentes Nachtflugverbot von 22 Uhr bis 6 Uhr am Flughafen BER. Kurzstreckenflüge gehören auf die Schiene. Alle Messdaten der Ultrafeinstaubmessung am Flughafen BER müssen öffentlich werden. Die Subventionierung des Flughafens und der Billigairlines muss beendet werden, denn wer fliegt oder Flüge anbietet, muss die tatsächlichen Kosten zahlen.",2026-07-13,19:00,20:00,19:00 - 20:00,Treptow-Köpenick,12587,Bölschestr. 100,OTHER,LOW,20,"",52.4523921,13.624615,0.8,"",Topic could not be classified precisely; The event takes place in the evening
c30440ca73e8c2e1-164,Sitzstreik und Mahnwache für Menschenrechte im Iran sowie für eine Neubewertung der diplomatischen Beziehungen Verlänge- rung der Mahnwache (vom 01.07. bis 31.07.2026 - täglich),2026-07-14,00:00,23:59,00:00 - 23:59,"",10557,Platz der Republik 1,LABOR_SOCIAL,LOW,15,"",52.5186538,13.3761015,0.8,"","Labor or social topic, usually with low operational risk"
c30440ca73e8c2e1-165,Langandauernder Hungerstreik einer aserbaidschanischen politischen Gefangenen mit der Forderung nach ihrer Freilassung. (vom 05.07. bis 15.07.2026 - täglich),2026-07-14,00:00,00:00,00:00 - 00:00,"",10557,Willy-Brandt-Str. 1,LABOR_SOCIAL,LOW,15,"",52.5201946,13.3691292,0.8,"","Labor or social topic, usually with low operational risk"
c30440ca73e8c2e1-163,"„Save the Bees, Rave the World, Bring the Mothership Back on Track“ (vom 26.06. bis 26.08.2026 - täglich)",2026-07-14,00:00,23:59,00:00 - 23:59,Mitte,10179,Wallstr. 4,OTHER,LOW,10,"",52.5110953,13.4037831,0.8,"",Topic could not be classified precisely
c30440ca73e8c2e1-166,"Die Verfolgung von FALUN DAFA / FALUN-GONG Praktizierenden in China beenden, Gerechtigkeit und Wiedergutmachung für alle von der KP Verfolgte (vom 01.01. bis 31.12.2026 - jeweils Mo., Di., Mi., Do., Fr., Sa., So.)",2026-07-14,10:30,13:00,10:30 - 13:00,Mitte,10179,Jannowitzbrücke,OTHER,LOW,10,"",52.5142146,13.4194925,0.8,"",Topic could not be classified precisely
c30440ca73e8c2e1-167,"Protest gegen die fortlaufenden Hinrichtungen unschuldiger Menschen im Iran sowie Erinnerung an die Opfer, die ihr Leben für Freiheit und Menschenrechte verloren haben. (vom 01.07. bis 31.07.2026 - täglich)",2026-07-14,11:00,15:30,11:00 - 15:30,Steglitz-Zehlendorf,14195,Podbielskiallee 67,COUNTER_DEMONSTRATION,HIGH,60,"",52.4609514,13.2999621,0.8,"",Counter-demonstration significantly increases operational risk
c30440ca73e8c2e1-168,Für den Frieden in der Welt und das Ende aller Kriege - Frieden schaffen ohne Waffen -,2026-07-14,11:30,13:30,11:30 - 13:30,Mitte,10178,Alexanderplatz 1,UKRAINE_RUSSIA,HIGH,45,"",52.5215058,13.4123809,0.8,"",Foreign policy topic with potentially high emotional tension
c30440ca73e8c2e1-169,"Falun Dafa ist gut! – Wahrhaftigkeit, Barmherzigkeit, Nachsicht sind gut! Stoppt die Verfolgung von Falun Gong in China durch die bösartige Kommunistische Partei Chinas! Stoppt den staatlich organisierten Organraub an Falun Gong-Praktizieren- den! Tuidang – Schnell austreten aus allen Organisationen der KP-Chinas! (vom 26.05. bis 24.10.2026 - täglich)",2026-07-14,15:00,17:00,15:00 - 17:00,Treptow-Köpenick,12435,S-Bhf. Treptower Park,FAR_LEFT,HIGH,50,"",52.4919839,13.4624681,0.8,"",Far-left mobilization with moderate conflict potential
c30440ca73e8c2e1-170,Für den Frieden - Austausch mit Bürgern Aufklärung von Propaganda (vom 10.03. bis 28.07.2026 - jeweils Di.),2026-07-14,16:00,18:00,16:00 - 18:00,Treptow-Köpenick,12555,Luisenhain,OTHER_POLITICAL,LOW,20,"",52.4452618,13.5729586,0.8,"",General political topic
c30440ca73e8c2e1-171,"Hoffnung in konfliktreichen Zeit: Ist es möglich, Hoffnung und Lösungspunkte für die Konflikte in unserer Gesellschaft zu finden?",2026-07-14,16:00,18:00,16:00 - 18:00,Friedrichshain-Kreuzberg,10999,Kottbusser Tor,OTHER,LOW,10,"",52.4989853,13.4183107,0.8,"",Topic could not be classified precisely
c30440ca73e8c2e1-173,"Demonstration OMAS GEGEN RECHTS Süd/West gegen Querdenker, Verschwörungstheoretiker und rechte Populisten auf dem Mittelstreifen der Schlossstraße",2026-07-14,17:00,18:30,17:00 - 18:30,Steglitz-Zehlendorf,12163,Schloßstr.,FAR_RIGHT,HIGH,60,"",52.461481,13.3250946,0.8,"",Far-right mobilization with high probability of counter-demonstrations
c30440ca73e8c2e1-174,"Demonstration OMAS GEGEN RECHTS Süd/West gegen Querdenker, Verschwörungstheoretiker und rechte Populisten auf dem Mittelstreifen der Schlossstraße",2026-07-14,17:00,18:30,17:00 - 18:30,Steglitz-Zehlendorf,12163,Schloßstr.,FAR_RIGHT,HIGH,60,"",52.461481,13.3250946,0.8,"",Far-right mobilization with high probability of counter-demonstrations
c30440ca73e8c2e1-172,"Menschen mit Schildern stehen wegen der aktuellen Lage, der Gesundheitsdiktatur, der Berichterstattungen der Medien, der Kriegstreiberei, der Politik, der Verfolgung Unschuldiger, der Korruption der unkontrollierten Migration und der NGO´s ... (vom 06.01. bis 29.12.2026 - jeweils Di.)",2026-07-14,17:00,18:30,17:00 - 18:30,Steglitz-Zehlendorf,12163,Schloßstr. 90,HEALTHCARE,LOW,20,"",52.4579172,13.3220183,0.8,Mittelstreifen zwischen den Hausnummern 90- 96,Healthcare topic without elevated conflict indicators; A march affects more streets than a static assembly
c30440ca73e8c2e1-175,Wir pfeifen auf Stuttgart 21 (vom 13.01. bis 22.12.2026 - jeweils Di.),2026-07-14,18:40,19:15,18:40 - 19:15,Tempelhof-Schöneberg,10785,Potsdamer Platz,OTHER,LOW,20,"",52.5098014,13.3755898,0.8,"",Topic could not be classified precisely; The event takes place in the evening
c30440ca73e8c2e1-177,Sitzstreik und Mahnwache für Menschenrechte im Iran sowie für eine Neubewertung der diplomatischen Beziehungen Verlänge- rung der Mahnwache (vom 01.07. bis 31.07.2026 - täglich),2026-07-15,00:00,23:59,00:00 - 23:59,"",10557,Platz der Republik 1,LABOR_SOCIAL,LOW,15,"",52.5186538,13.3761015,0.8,"","Labor or social topic, usually with low operational risk"
c30440ca73e8c2e1-178,Langandauernder Hungerstreik einer aserbaidschanischen politischen Gefangenen mit der Forderung nach ihrer Freilassung. (vom 05.07. bis 15.07.2026 - täglich),2026-07-15,00:00,00:00,00:00 - 00:00,"",10557,Willy-Brandt-Str. 1,LABOR_SOCIAL,LOW,15,"",52.5201946,13.3691292,0.8,"","Labor or social topic, usually with low operational risk"
c30440ca73e8c2e1-176,"„Save the Bees, Rave the World, Bring the Mothership Back on Track“ (vom 26.06. bis 26.08.2026 - täglich)",2026-07-15,00:00,23:59,00:00 - 23:59,Mitte,10179,Wallstr. 4,OTHER,LOW,10,"",52.5110953,13.4037831,0.8,"",Topic could not be classified precisely
c30440ca73e8c2e1-179,"Die Verfolgung von FALUN DAFA / FALUN-GONG Praktizierenden in China beenden, Gerechtigkeit und Wiedergutmachung für alle von der KP Verfolgte (vom 01.01. bis 31.12.2026 - jeweils Mo., Di., Mi., Do., Fr., Sa., So.)",2026-07-15,10:30,13:00,10:30 - 13:00,Mitte,10179,Jannowitzbrücke,OTHER,LOW,10,"",52.5142146,13.4194925,0.8,"",Topic could not be classified precisely
c30440ca73e8c2e1-180,"Protest gegen die fortlaufenden Hinrichtungen unschuldiger Menschen im Iran sowie Erinnerung an die Opfer, die ihr Leben für Freiheit und Menschenrechte verloren haben. (vom 01.07. bis 31.07.2026 - täglich)",2026-07-15,11:00,15:30,11:00 - 15:30,Steglitz-Zehlendorf,14195,Podbielskiallee 67,COUNTER_DEMONSTRATION,HIGH,60,"",52.4609514,13.2999621,0.8,"",Counter-demonstration significantly increases operational risk
c30440ca73e8c2e1-181,15. Juli Gedenk-Fahrradtour,2026-07-15,12:00,16:00,12:00 - 16:00,"","","",TRANSPORT,LOW,20,"","","","",Heerstr. 21 (AK am türkischen Generalkonsulat) - Heerstr. - Theodor-Heuss-Platz - Kaiserdamm -Bismarckstr.- Ernst-Reuter-Platz - Str. d. 17. Juni - Großer Stern - Hofjägerallee - Tiergartenstr. - Tiergartenstr. 19-21 (EK an der türk. Botschaft),Transport or infrastructure topic; A march affects more streets than a static assembly
c30440ca73e8c2e1-182,"Falun Dafa ist gut! – Wahrhaftigkeit, Barmherzigkeit, Nachsicht sind gut! Stoppt die Verfolgung von Falun Gong in China durch die bösartige Kommunistische Partei Chinas! Stoppt den staatlich organisierten Organraub an Falun Gong-Praktizieren- den! Tuidang – Schnell austreten aus allen Organisationen der KP-Chinas! (vom 26.05. bis 24.10.2026 - täglich)",2026-07-15,15:00,17:00,15:00 - 17:00,Treptow-Köpenick,12435,S-Bhf. Treptower Park,FAR_LEFT,HIGH,50,"",52.4919839,13.4624681,0.8,"",Far-left mobilization with moderate conflict potential
c30440ca73e8c2e1-183,"Kein Krieg und keine Kriegshetze gegen Russland! NATO - Hände weg von der Ukraine und anderen Ländern, die in ihrem Fadenkreuz stehen! (vom 03.06. bis 26.08.2026 - jeweils Mi.)",2026-07-15,18:00,19:00,18:00 - 19:00,Mitte,10117,Pariser Platz 2,UKRAINE_RUSSIA,HIGH,45,"",52.515292,13.3781671,0.8,"",Foreign policy topic with potentially high emotional tension
c30440ca73e8c2e1-185,Sitzstreik und Mahnwache für Menschenrechte im Iran sowie für eine Neubewertung der diplomatischen Beziehungen Verlänge- rung der Mahnwache (vom 01.07. bis 31.07.2026 - täglich),2026-07-16,00:00,23:59,00:00 - 23:59,"",10557,Platz der Republik 1,LABOR_SOCIAL,LOW,15,"",52.5186538,13.3761015,0.8,"","Labor or social topic, usually with low operational risk"
c30440ca73e8c2e1-184,"„Save the Bees, Rave the World, Bring the Mothership Back on Track“ (vom 26.06. bis 26.08.2026 - täglich)",2026-07-16,00:00,23:59,00:00 - 23:59,Mitte,10179,Wallstr. 4,OTHER,LOW,10,"",52.5110953,13.4037831,0.8,"",Topic could not be classified precisely
c30440ca73e8c2e1-186,Aufklärung rechter Straftaten und rechter Strukturen in den Sicherheitsbehörden,2026-07-16,09:00,10:00,09:00 - 10:00,Tempelhof-Schöneberg,12101,Tempelhofer Damm 12,OTHER,LOW,10,"",52.4825383,13.3851327,0.8,"",Topic could not be classified precisely
c30440ca73e8c2e1-187,"Die Verfolgung von FALUN DAFA / FALUN-GONG Praktizierenden in China beenden, Gerechtigkeit und Wiedergutmachung für alle von der KP Verfolgte (vom 01.01. bis 31.12.2026 - jeweils Mo., Di., Mi., Do., Fr., Sa., So.)",2026-07-16,10:30,13:00,10:30 - 13:00,Mitte,10179,Jannowitzbrücke,OTHER,LOW,10,"",52.5142146,13.4194925,0.8,"",Topic could not be classified precisely
c30440ca73e8c2e1-188,"Protest gegen die fortlaufenden Hinrichtungen unschuldiger Menschen im Iran sowie Erinnerung an die Opfer, die ihr Leben für Freiheit und Menschenrechte verloren haben. (vom 01.07. bis 31.07.2026 - täglich)",2026-07-16,11:00,15:30,11:00 - 15:30,Steglitz-Zehlendorf,14195,Podbielskiallee 67,COUNTER_DEMONSTRATION,HIGH,60,"",52.4609514,13.2999621,0.8,"",Counter-demonstration significantly increases operational risk
c30440ca73e8c2e1-189,Gegen die Menschenrechtsverletzungen in der DVRK. für Glaubensfreiheit - gegen Bomben. Drohnen und Raketen - Auflösung aalr´Konzentrastionslager - für Reis statt Atom (vom 30.04. bis 30.07.2026 - jeweils Do.),2026-07-16,14:00,15:00,14:00 - 15:00,Mitte,10117,Glinkastr. 5-7,FAR_RIGHT,HIGH,60,"",52.5111974,13.3858923,0.8,"",Far-right mobilization with high probability of counter-demonstrations
c30440ca73e8c2e1-190,Freiheit für Ahmet!,2026-07-16,14:30,16:00,14:30 - 16:00,Charlottenburg-Wilmersdorf,10787,Rauchstr. 1,OTHER,LOW,10,"",52.5090799,13.3501359,0.8,"",Topic could not be classified precisely
c30440ca73e8c2e1-191,"Falun Dafa ist gut! – Wahrhaftigkeit, Barmherzigkeit, Nachsicht sind gut! Stoppt die Verfolgung von Falun Gong in China durch die bösartige Kommunistische Partei Chinas! Stoppt den staatlich organisierten Organraub an Falun Gong-Praktizieren- den! Tuidang – Schnell austreten aus allen Organisationen der KP-Chinas! (vom 26.05. bis 24.10.2026 - täglich)",2026-07-16,15:00,17:00,15:00 - 17:00,Treptow-Köpenick,12435,S-Bhf. Treptower Park,FAR_LEFT,HIGH,50,"",52.4919839,13.4624681,0.8,"",Far-left mobilization with moderate conflict potential
c30440ca73e8c2e1-192,"Friedliche und freundliche Unterstützung des Nachbarschaftsdialogs. Entgegenwirken von Spaltung und Diskriminierung jeder Art, durch Förderung von friedlicher Kommunikation miteinander, Gleichberechtigung und fundiertem Verständnis für alle Mitmenschen. (vom 08.01. bis 31.12.2026 - jeweils Do.)",2026-07-16,16:00,18:30,16:00 - 18:30,Charlottenburg-Wilmersdorf,10627,Wilmersdorfer Str.,LOCAL_CIVIC,LOW,10,"",52.5066749,13.3066372,0.8,"",Local civic topic without elevated conflict indicators
c30440ca73e8c2e1-193,"Gegen Querdenkerei, Falschmeldungen, Lügenverbreitung, Recht- sruck",2026-07-16,17:00,18:30,17:00 - 18:30,Tempelhof-Schöneberg,12101,Tempelhofer Damm 100,COUNTER_DEMONSTRATION,HIGH,60,"",52.4725358,13.3853761,0.8,"",Counter-demonstration significantly increases operational risk
c30440ca73e8c2e1-194,"Menschen mit Schildern stehen wegen der aktuellen Lage, der Gesundheitsdiktatur, der Berichterstattungen der Medien, der Kriegstreiberei, der Politik, der Verfolgung Unschuldiger, der Korruption der unkontrollierten Migration und der NGO´s ... (vom 08.01. bis 31.12.2026 - jeweils Do.)",2026-07-16,17:00,18:30,17:00 - 18:30,Tempelhof-Schöneberg,12101,Tempelhofer Damm 99,HEALTHCARE,LOW,10,"",52.4717731,13.3860135,0.8,"",Healthcare topic without elevated conflict indicators
c30440ca73e8c2e1-195,"Öffentliche Forderung nach der unverzüglichen Wiederer- öffnung der am 24. Juli 2024 geschlossenen Gotteshäu- ser in Deutschland und Kritik an staatlichen Maßnahmen, die zu deren Schließung geführt haben, begleitet von gemeinsamen Gebeten (Duʿāʾ), einschließlich des Duʿāʾ Kumayl (vom 02.07. bis 24.09.2026 - jeweils Do.)",2026-07-16,18:00,19:00,18:00 - 19:00,Tempelhof-Schöneberg,12099,Ordensmeisterstr. 5,RELIGIOUS,LOW,20,"",52.4568155,13.3893294,0.8,"","Religious assembly, operational risk depends on context"
c30440ca73e8c2e1-197,Sitzstreik und Mahnwache für Menschenrechte im Iran sowie für eine Neubewertung der diplomatischen Beziehungen Verlänge- rung der Mahnwache (vom 01.07. bis 31.07.2026 - täglich),2026-07-17,00:00,23:59,00:00 - 23:59,"",10557,Platz der Republik 1,LABOR_SOCIAL,LOW,15,"",52.5186538,13.3761015,0.8,"","Labor or social topic, usually with low operational risk"
c30440ca73e8c2e1-196,"„Save the Bees, Rave the World, Bring the Mothership Back on Track“ (vom 26.06. bis 26.08.2026 - täglich)",2026-07-17,00:00,23:59,00:00 - 23:59,Mitte,10179,Wallstr. 4,OTHER,LOW,10,"",52.5110953,13.4037831,0.8,"",Topic could not be classified precisely
c30440ca73e8c2e1-198,FridaysForFuture; Klimamahnwache - für die Einhaltung des Pariser Abkommens und generell (vom 03.07. bis 25.12.2026 - jeweils Fr.),2026-07-17,10:00,12:00,10:00 - 12:00,"",10557,Platz der Republik,CLIMATE,LOW,15,"",52.5186753,13.3731249,0.8,"","Climate or environment topic, typically peaceful"
c30440ca73e8c2e1-199,"Die Verfolgung von FALUN DAFA / FALUN-GONG Praktizierenden in China beenden, Gerechtigkeit und Wiedergutmachung für alle von der KP Verfolgte (vom 01.01. bis 31.12.2026 - jeweils Mo., Di., Mi., Do., Fr., Sa., So.)",2026-07-17,10:30,13:00,10:30 - 13:00,Mitte,10179,Jannowitzbrücke,OTHER,LOW,10,"",52.5142146,13.4194925,0.8,"",Topic could not be classified precisely
c30440ca73e8c2e1-200,"Protest gegen die fortlaufenden Hinrichtungen unschuldiger Menschen im Iran sowie Erinnerung an die Opfer, die ihr Leben für Freiheit und Menschenrechte verloren haben. (vom 01.07. bis 31.07.2026 - täglich)",2026-07-17,11:00,15:30,11:00 - 15:30,Steglitz-Zehlendorf,14195,Podbielskiallee 67,COUNTER_DEMONSTRATION,HIGH,60,"",52.4609514,13.2999621,0.8,"",Counter-demonstration significantly increases operational risk
c30440ca73e8c2e1-201,Kritik an politischen Entscheidungen der Regierung der Russischen Föderation bezüglich des Krieges. Selbstbestimmung von Sibirischen Volk.,2026-07-17,12:00,14:00,12:00 - 14:00,Mitte,10117,Unter den Linden 63,UKRAINE_RUSSIA,HIGH,45,"",52.5161182,13.3836783,0.8,"",Foreign policy topic with potentially high emotional tension
c30440ca73e8c2e1-203,Gegen Speziesismus – Für eine vegane Gesellschaft (vom 05.06. bis 30.10.2026 - jeweils Fr.),2026-07-17,15:00,19:00,15:00 - 19:00,Mitte,10117,Pariser Platz 1,COUNTER_DEMONSTRATION,HIGH,60,"",52.5162699,13.3777034,0.8,"",Counter-demonstration significantly increases operational risk
c30440ca73e8c2e1-202,"Falun Dafa ist gut! – Wahrhaftigkeit, Barmherzigkeit, Nachsicht sind gut! Stoppt die Verfolgung von Falun Gong in China durch die bösartige Kommunistische Partei Chinas! Stoppt den staatlich organisierten Organraub an Falun Gong-Praktizieren- den! Tuidang – Schnell austreten aus allen Organisationen der KP-Chinas! (vom 26.05. bis 24.10.2026 - täglich)",2026-07-17,15:00,17:00,15:00 - 17:00,Treptow-Köpenick,12435,S-Bhf. Treptower Park,FAR_LEFT,HIGH,50,"",52.4919839,13.4624681,0.8,"",Far-left mobilization with moderate conflict potential
c30440ca73e8c2e1-205,Mahnwache gegen Leerstand,2026-07-17,17:00,19:00,17:00 - 19:00,Tempelhof-Schöneberg,10777,Motzstr. 48,COUNTER_DEMONSTRATION,HIGH,60,"",52.4965939,13.3439893,0.8,"",Counter-demonstration significantly increases operational risk
c30440ca73e8c2e1-204,"Für ein Ende der Besatzung in Palästina, gegen Todesstrafe und Folter palästinensischer Gefangener, Uneingeschr- änkter Zugang humanitärer Hilfe für die Menschen in Gaza und Öffnung aller Zugänge, Stop der Siedlergewalt im Westjordanland und Ostjerusalem, Stop für alle militärische Kooperation inklusive Waffenexporte mit Israel, Schutz von Meinungs-, Versammlungs-und Wissen- schaftsfreiheit. (vom 03.07. bis 25.09.2026 - jeweils Fr.)",2026-07-17,17:00,18:15,17:00 - 18:15,Friedrichshain-Kreuzberg,10961,Blücherplatz 1,MIDDLE_EAST,HIGH,55,"",52.4965672,13.3924936,0.8,"",Foreign policy topic with elevated probability of counter-demonstrations
c30440ca73e8c2e1-207,Demo gegen KI Überwachung,2026-07-17,18:00,21:00,18:00 - 21:00,Friedrichshain-Kreuzberg,10967,"",COUNTER_DEMONSTRATION,VERY_HIGH,70,"",52.489641,13.4161059,0.3,Kottbusser Tor (AK) - Skalitzer Str. - Wiener Str. - Görlitzer Park (ZK) - Wiener Str. - Glogauer Str. - Thielenbrücke - Pannierstr. - Sonnenallee - Hermannplatz (EK),Counter-demonstration significantly increases operational risk; A march affects more streets than a static assembly
c30440ca73e8c2e1-206,Eine Zensur findet nicht statt (Art. 5 GG) Meinungsfreiheit jetzt!,2026-07-17,18:00,19:00,18:00 - 19:00,Mitte,10117,Pariser Platz,OTHER,LOW,10,"",52.5163553,13.3786828,0.8,"",Topic could not be classified precisely
c30440ca73e8c2e1-208,Solidarisch gegen Antisemitismus. Mahnwache zum Schutz jüdischen Lebens. (vom 03.07. bis 23.10.2026 - jeweils Fr.),2026-07-17,18:30,20:00,18:30 - 20:00,Friedrichshain-Kreuzberg,10999,Fraenkelufer 10,MIDDLE_EAST,VERY_HIGH,65,"",52.4960226,13.416844,0.8,"",Foreign policy topic with elevated probability of counter-demonstrations; The event takes place in the evening
c30440ca73e8c2e1-209,Weltfrieden durch Offenlegung,2026-07-17,19:00,22:00,19:00 - 22:00,Mitte,10117,Pariser Platz,OTHER_POLITICAL,MEDIUM,30,"",52.5163553,13.3786828,0.8,"",General political topic; The event takes place in the evening
c30440ca73e8c2e1-211,Sitzstreik und Mahnwache für Menschenrechte im Iran sowie für eine Neubewertung der diplomatischen Beziehungen Verlänge- rung der Mahnwache (vom 01.07. bis 31.07.2026 - täglich),2026-07-18,00:00,23:59,00:00 - 23:59,"",10557,Platz der Republik 1,LABOR_SOCIAL,LOW,15,"",52.5186538,13.3761015,0.8,"","Labor or social topic, usually with low operational risk"
c30440ca73e8c2e1-210,"„Save the Bees, Rave the World, Bring the Mothership Back on Track“ (vom 26.06. bis 26.08.2026 - täglich)",2026-07-18,00:00,23:59,00:00 - 23:59,Mitte,10179,Wallstr. 4,OTHER,LOW,10,"",52.5110953,13.4037831,0.8,"",Topic could not be classified precisely
c30440ca73e8c2e1-212,"Straßenkundgebung, Umzug mit der Motto: Für Völkerverständigung, Toleranz und Religionsfreiheit!",2026-07-18,10:00,18:00,10:00 - 18:00,"","","",RELIGIOUS,MEDIUM,30,"","","","",Hasenheide/Jahnstr. - Hasenheide/Körtestr.,"Religious assembly, operational risk depends on context; A march affects more streets than a static assembly"
c30440ca73e8c2e1-215,"Protest gegen die fortlaufenden Hinrichtungen unschuldiger Menschen im Iran sowie Erinnerung an die Opfer, die ihr Leben für Freiheit und Menschenrechte verloren haben. (vom 01.07. bis 31.07.2026 - täglich)",2026-07-18,11:00,15:30,11:00 - 15:30,Steglitz-Zehlendorf,14195,Podbielskiallee 67,COUNTER_DEMONSTRATION,HIGH,60,"",52.4609514,13.2999621,0.8,"",Counter-demonstration significantly increases operational risk
c30440ca73e8c2e1-213,Muslime für Frieden Aktion (vom 11.04.2026 bis 27.03.2027 - jeweils Sa.),2026-07-18,11:00,15:00,11:00 - 15:00,Pankow,13187,Breite Str. 24A,OTHER_POLITICAL,LOW,20,"",52.5690159,13.4018914,0.8,"",General political topic
c30440ca73e8c2e1-214,Muslime für Frieden (vom 27.06. bis 25.07.2026 - jeweils Sa.),2026-07-18,11:00,15:00,11:00 - 15:00,Pankow,13125,S-Bhf. Buch,OTHER_POLITICAL,LOW,20,"",52.6363679,13.4933107,0.8,"",General political topic
c30440ca73e8c2e1-217,Ohne JESUS kein Frieden (vom 10.01.2026 bis 31.12.2027 - jeweils Sa.),2026-07-18,12:00,15:00,12:00 - 15:00,Friedrichshain-Kreuzberg,10999,Reichenberger Str. 176,OTHER_POLITICAL,LOW,20,"",52.4998432,13.4172642,0.8,"",General political topic
c30440ca73e8c2e1-218,Ohne JESUS kein Frieden (vom 17.01. bis 31.12.2026 - jeweils Sa.),2026-07-18,12:00,15:00,12:00 - 15:00,"","","",OTHER_POLITICAL,LOW,20,"","","","","",General political topic
c30440ca73e8c2e1-219,Ohne JESUS kein Frieden (vom 24.01. bis 31.12.2026 - jeweils Sa.),2026-07-18,12:00,15:00,12:00 - 15:00,Mitte,13347,Leopoldplatz,OTHER_POLITICAL,LOW,20,"",52.5463833,13.3591672,0.8,"",General political topic
c30440ca73e8c2e1-216,"Die Verfolgung von FALUN DAFA / FALUN-GONG Praktizierenden in China beenden, Gerechtigkeit und Wiedergutmachung für alle von der KP Verfolgte (vom 01.01. bis 31.12.2026 - jeweils Mo., Di., Mi., Do., Fr., Sa., So.)",2026-07-18,12:00,14:30,12:00 - 14:30,Mitte,10179,Jannowitzbrücke,OTHER,LOW,10,"",52.5142146,13.4194925,0.8,"",Topic could not be classified precisely
c30440ca73e8c2e1-220,Mahnwache für den Frieden (vom 10.01. bis 26.12.2026 - jeweils Sa.),2026-07-18,13:00,15:00,13:00 - 15:00,Mitte,10117,Bebelplatz 2,OTHER_POLITICAL,LOW,20,"",52.5164723,13.3930752,0.8,"",General political topic
c30440ca73e8c2e1-223,Ampeln gegen Tierversuche,2026-07-18,14:00,17:00,14:00 - 17:00,Friedrichshain-Kreuzberg,10961,Mehringdamm 37,COUNTER_DEMONSTRATION,HIGH,60,"",52.4931001,13.3882825,0.8,"",Counter-demonstration significantly increases operational risk
c30440ca73e8c2e1-225,Gegen Speziesismus – Für eine vegane Gesellschaft (vom 06.06. bis 31.10.2026 - jeweils Sa.),2026-07-18,14:00,18:00,14:00 - 18:00,Mitte,10117,Pariser Platz,COUNTER_DEMONSTRATION,HIGH,60,"",52.5163553,13.3786828,0.8,"",Counter-demonstration significantly increases operational risk
c30440ca73e8c2e1-226,"Falun Dafa ist gut! – Wahrhaftigkeit, Barmherzigkeit, Nachsicht sind gut! Stoppt die Verfolgung von Falun Gong in China durch die bösartige Kommunistische Partei Chinas! Stoppt den staatlich organisierten Organraub an Falun Gong-Praktizierenden! Tuidang – Schnell austreten aus allen Organisationen der KP-Chinas! (vom 23.05. bis 24.10.2026 - jeweils Sa.)",2026-07-18,14:00,18:30,14:00 - 18:30,Mitte,10117,Pariser Platz,FAR_LEFT,HIGH,50,"",52.5163553,13.3786828,0.8,"",Far-left mobilization with moderate conflict potential
c30440ca73e8c2e1-222,"Förderung von Körperpositivität, Selb- stakzeptanz und der Würde aller Menschen unabhängig von ihrem äußeren Erscheinungsbild",2026-07-18,14:00,16:30,14:00 - 16:30,Friedrichshain-Kreuzberg,10997,Görlitzer Park,OTHER,LOW,10,"",52.5013652,13.4357239,0.3,"",Topic could not be classified precisely
c30440ca73e8c2e1-224,"Hoffnung in konfliktreichen Zeit: Ist es möglich, Hoffnung und Lösungspunkte für die Konflikte in unserer Gesellschaft zu finden?",2026-07-18,14:00,17:00,14:00 - 17:00,Friedrichshain-Kreuzberg,10967,Hermannplatz,OTHER,LOW,10,"",52.4862857,13.4245531,0.8,"",Topic could not be classified precisely
c30440ca73e8c2e1-221,"„Musikalische Versammlung für Frieden, Verständigung und gesellschaftlichen Zusammenhalt – gemeinsames Singen als Ausdruck für Gewaltfreiheit, Dialogbereitschaft und ein respektvolles Miteinander.“ (vom 25.04. bis 31.12.2026 - jeweils Sa.)",2026-07-18,14:00,15:45,14:00 - 15:45,Charlottenburg-Wilmersdorf,10627,Wilmersdorfer Str. 118,CULTURAL,LOW,5,"",52.508082,13.306469,0.8,"",Cultural topic with low operational risk
c30440ca73e8c2e1-227,"Falun Dafa ist gut! – Wahrhaftigkeit, Barmherzigkeit, Nachsicht sind gut! Stoppt die Verfolgung von Falun Gong in China durch die bösartige Kommunistische Partei Chinas! Stoppt den staatlich organisierten Organraub an Falun Gong-Praktizieren- den! Tuidang – Schnell austreten aus allen Organisationen der KP-Chinas! (vom 26.05. bis 24.10.2026 - täglich)",2026-07-18,15:00,17:00,15:00 - 17:00,Treptow-Köpenick,12435,S-Bhf. Treptower Park,FAR_LEFT,HIGH,50,"",52.4919839,13.4624681,0.8,"",Far-left mobilization with moderate conflict potential
c30440ca73e8c2e1-228,Frieden Freiheit Souveränität (vom 04.07. bis 25.07.2026 - jeweils Sa.),2026-07-18,15:00,17:00,15:00 - 17:00,Mitte,10117,Pariser Platz,OTHER_POLITICAL,LOW,20,"",52.5163553,13.3786828,0.8,"",General political topic
c30440ca73e8c2e1-230,Sitzstreik und Mahnwache für Menschenrechte im Iran sowie für eine Neubewertung der diplomatischen Beziehungen Verlänge- rung der Mahnwache (vom 01.07. bis 31.07.2026 - täglich),2026-07-19,00:00,23:59,00:00 - 23:59,"",10557,Platz der Republik 1,LABOR_SOCIAL,LOW,15,"",52.5186538,13.3761015,0.8,"","Labor or social topic, usually with low operational risk"
c30440ca73e8c2e1-229,"„Save the Bees, Rave the World, Bring the Mothership Back on Track“ (vom 26.06. bis 26.08.2026 - täglich)",2026-07-19,00:00,23:59,00:00 - 23:59,Mitte,10179,Wallstr. 4,OTHER,LOW,10,"",52.5110953,13.4037831,0.8,"",Topic could not be classified precisely
c30440ca73e8c2e1-231,Wir informieren über die aktuelle Lage in Gaza. Für einen Stopp aller Waffenexporte und militärischer Kooperation mit Israel. Für eine Aussetzung des Assoziierungsabkommens zwischen der Europäischen Union und Israel. Für einen gerechten Frieden in Nahost! (vom 07.06. bis 31.07.2026 - jeweils So.),2026-07-19,11:00,18:00,11:00 - 18:00,Pankow,10437,Eberswalder Str.,MIDDLE_EAST,HIGH,55,"",52.5415154,13.4121769,0.8,"",Foreign policy topic with elevated probability of counter-demonstrations
c30440ca73e8c2e1-232,"Die Verfolgung von FALUN DAFA / FALUN-GONG Praktizierenden in China beenden, Gerechtigkeit und Wiedergutmachung für alle von der KP Verfolgte (vom 01.01. bis 31.12.2026 - jeweils Mo., Di., Mi., Do., Fr., Sa., So.)",2026-07-19,12:00,14:30,12:00 - 14:30,Mitte,10179,Jannowitzbrücke,OTHER,LOW,10,"",52.5142146,13.4194925,0.8,"",Topic could not be classified precisely
c30440ca73e8c2e1-233,",,Animal Rights Square: Video-Aktion zur Aufklärung über die Tierindustrie",2026-07-19,12:00,16:00,12:00 - 16:00,Mitte,10117,Pariser Platz,OTHER,LOW,10,"",52.5163553,13.3786828,0.8,"",Topic could not be classified precisely
c30440ca73e8c2e1-234,"Protest gegen die fortlaufenden Hinrichtungen unschuldiger Menschen im Iran sowie Erinnerung an die Opfer, die ihr Leben für Freiheit und Menschenrechte verloren haben. (vom 01.07. bis 31.07.2026 - täglich)",2026-07-19,13:00,15:00,13:00 - 15:00,Steglitz-Zehlendorf,14195,Podbielskiallee 67,COUNTER_DEMONSTRATION,HIGH,60,"",52.4609514,13.2999621,0.8,"",Counter-demonstration significantly increases operational risk
c30440ca73e8c2e1-235,"Falun Dafa ist gut! – Wahrhaftigkeit, Barmherzigkeit, Nachsicht sind gut! Stoppt die Verfolgung von Falun Gong in China durch die bösartige Kommunistische Partei Chinas! Stoppt den staatlich organisierten Organraub an Falun Gong-Praktizieren- den! Tuidang – Schnell austreten aus allen Organisationen der KP-Chinas! (vom 10.05. bis 25.10.2026 - jeweils So.)",2026-07-19,13:00,18:00,13:00 - 18:00,Treptow-Köpenick,12435,Am Treptower Park,FAR_LEFT,HIGH,50,"",52.4859358,13.4661606,0.8,"",Far-left mobilization with moderate conflict potential
c30440ca73e8c2e1-237,"Falun Dafa ist gut! – Wahrhaftigkeit, Barmherzigkeit, Nachsicht sind gut! Stoppt die Verfolgung von Falun Gong in China durch die bösartige Kommunistische Partei Chinas! Stoppt den staatlich organisierten Organraub an Falun Gong-Praktizieren- den! Tuidang – Schnell austreten aus allen Organisationen der KP-Chinas! (vom 26.05. bis 24.10.2026 - täglich)",2026-07-19,15:00,17:00,15:00 - 17:00,Treptow-Köpenick,12435,S-Bhf. Treptower Park,FAR_LEFT,HIGH,50,"",52.4919839,13.4624681,0.8,"",Far-left mobilization with moderate conflict potential
c30440ca73e8c2e1-236,"Krieg ist nie die einzige Wahl, aber immer die schlechteste. Mittels Flashmob bringen wir den Schrecken jeden Krieges zurück in die Öffentlichkeit und wollen zum Nachdenken und Gesprächen anregen. (vom 04.01. bis 20.12.2026 - jeweils So.)",2026-07-19,15:00,17:00,15:00 - 17:00,Mitte,10117,Pariser Platz 1,LOCAL_CIVIC,LOW,10,"",52.5162699,13.3777034,0.8,"",Local civic topic without elevated conflict indicators
c30440ca73e8c2e1-238,"Tanzveranstaltung in Solidarität mit der kubanischen Bevölkerung! Wir setzen und für bessere Lebensbedingung- en, internationale Solidarität und Menschenrechte. Stoppt die humanitäre Krise in Kuba!",2026-07-19,16:00,20:00,16:00 - 20:00,Lichtenberg,10317,Nöldnerplatz,OTHER,LOW,10,"",52.5036899,13.4849359,0.8,"",Topic could not be classified precisely
c30440ca73e8c2e1-239,Mahnwache und Gedekveranstaltung für die Opfer des Massakers und der Gewalt in Swaida/Syrien,2026-07-19,17:00,20:00,17:00 - 20:00,Mitte,10117,Platz des 18. März,OTHER,LOW,10,"",52.5163704,13.3772972,0.8,"",Topic could not be classified precisely
c30440ca73e8c2e1-241,Sitzstreik und Mahnwache für Menschenrechte im Iran sowie für eine Neubewertung der diplomatischen Beziehungen Verlänge- rung der Mahnwache (vom 01.07. bis 31.07.2026 - täglich),2026-07-20,00:00,23:59,00:00 - 23:59,"",10557,Platz der Republik 1,LABOR_SOCIAL,LOW,15,"",52.5186538,13.3761015,0.8,"","Labor or social topic, usually with low operational risk"
c30440ca73e8c2e1-240,"„Save the Bees, Rave the World, Bring the Mothership Back on Track“ (vom 26.06. bis 26.08.2026 - täglich)",2026-07-20,00:00,23:59,00:00 - 23:59,Mitte,10179,Wallstr. 4,OTHER,LOW,10,"",52.5110953,13.4037831,0.8,"",Topic could not be classified precisely
c30440ca73e8c2e1-242,"Die Verfolgung von FALUN DAFA / FALUN-GONG Praktizierenden in China beenden, Gerechtigkeit und Wiedergutmachung für alle von der KP Verfolgte (vom 01.01. bis 31.12.2026 - jeweils Mo., Di., Mi., Do., Fr., Sa., So.)",2026-07-20,10:30,13:00,10:30 - 13:00,Mitte,10179,Jannowitzbrücke,OTHER,LOW,10,"",52.5142146,13.4194925,0.8,"",Topic could not be classified precisely
c30440ca73e8c2e1-243,"Protest gegen die fortlaufenden Hinrichtungen unschuldiger Menschen im Iran sowie Erinnerung an die Opfer, die ihr Leben für Freiheit und Menschenrechte verloren haben. (vom 01.07. bis 31.07.2026 - täglich)",2026-07-20,11:00,15:30,11:00 - 15:30,Steglitz-Zehlendorf,14195,Podbielskiallee 67,COUNTER_DEMONSTRATION,HIGH,60,"",52.4609514,13.2999621,0.8,"",Counter-demonstration significantly increases operational risk
c30440ca73e8c2e1-244,"Mahnwache vor dem RKI. Kritisiert wird die Rolle des RKI im Zusammenhang mit der Corona-Hysterie und den dadurch begründeten Menschenrechtsverletzungen. Es besteht weiterhin die Forderung nach Erfüllung der Informationspflicht als Regierungsbehörde. Ferner ist bislang keinerlei Bemühung um Aufarbeitung der begangenen Rechtsbrüche zu erkennen. Da zudem längst Vorbereitungen für die nächste Pandemiesimulation angelaufen sind, ist ein Ende der Notwendigkeit der Mahnwache nicht abzusehen. (vom 01.09.2025 bis 31.08.2026 - jeweils Mo.)",2026-07-20,12:00,14:00,12:00 - 14:00,Mitte,13353,Nordufer 20,LABOR_SOCIAL,LOW,15,"",52.5395724,13.3468259,0.8,"","Labor or social topic, usually with low operational risk"
c30440ca73e8c2e1-245,Diskurs üben - Menschlichkeit bewahren - Frieden lernen! (vom 05.01. bis 28.12.2026 - jeweils ),2026-07-20,14:00,19:00,14:00 - 19:00,Pankow,13086,Antonplatz 1,OTHER_POLITICAL,LOW,20,"",52.5488199,13.4509296,0.8,"",General political topic
c30440ca73e8c2e1-246,101 Jahre sind genug – Aufhebung des Badeverbot in der innerstädtischen Spree,2026-07-20,14:00,21:00,14:00 - 21:00,"","","",OTHER,LOW,20,"","","","",Schinkelplatz (Einstieg) - Schwimmdemo: Spreekanal zwischen Schinkelplatz (Bauakademie) und Schloßfreiheit (Humboldt Forum) - Schinkelplatz (EK),Topic could not be classified precisely; A march affects more streets than a static assembly
c30440ca73e8c2e1-247,"Falun Dafa ist gut! – Wahrhaftigkeit, Barmherzigkeit, Nachsicht sind gut! Stoppt die Verfolgung von Falun Gong in China durch die bösartige Kommunistische Partei Chinas! Stoppt den staatlich organisierten Organraub an Falun Gong-Praktizieren- den! Tuidang – Schnell austreten aus allen Organisationen der KP-Chinas! (vom 26.05. bis 24.10.2026 - täglich)",2026-07-20,15:00,17:00,15:00 - 17:00,Treptow-Köpenick,12435,S-Bhf. Treptower Park,FAR_LEFT,HIGH,50,"",52.4919839,13.4624681,0.8,"",Far-left mobilization with moderate conflict potential
c30440ca73e8c2e1-248,Mahnwache für Frieden und Menschenrechte weltweit (vom 02.03. bis 26.10.2026 - jeweils Mo.),2026-07-20,16:00,17:30,16:00 - 17:30,Mitte,10117,Pariser Platz 2,OTHER_POLITICAL,LOW,20,"",52.515292,13.3781671,0.8,"",General political topic
c30440ca73e8c2e1-250,11 Jahre Suruç - Rojava Revolution verteidigen,2026-07-20,17:30,20:30,17:30 - 20:30,"","","",HIGH_CONFLICT_POLITICAL,VERY_HIGH,80,"","","","",Gesundbrunnen (AK) - Badstr. - Exerzierstr. - Schulstr. - Leopoldplatz (EK),High-conflict political topic; A march affects more streets than a static assembly
c30440ca73e8c2e1-249,",,Gemeinsam sicher auf der Kantstraße! Für sicheres Radfahren in Charlottenburg und ganz Berlin!",2026-07-20,17:30,19:00,17:30 - 19:00,Charlottenburg-Wilmersdorf,"","",OTHER,LOW,20,"","","","",Savignyplatz (AK - nördliche Seite) - Kantstr. - Kehre Kaiser-Friedrich-Str. - Kantstr. - Kehre Joachimsthaler Str. - Kantstr. - Kehre Kaiser-Friedrich-Str. - Kantstr. (ZK) - Wilmersdorfer Str. - Kantstr. - Kehre Joachimsthaler Str. - Kantstr. - Kehre Kaiser-Friedrich-Str. - Kantstr. - Kehre Joachimsthaler Str. - Kantstr. - Savignyplatz - Savignyplatz - Savignyplatz 3-4 (EK - westliche Seite),Topic could not be classified precisely; A march affects more streets than a static assembly
c30440ca73e8c2e1-252,Weg mit Hartz 4 und dem Bürgergeldbetrug! - Aktiver Widerstand gegen einen 3. Weltkrieg! - Montag ist Tag des Widerstands! (vom 05.01.2026 bis 05.01.2027 - jeweils Mo.),2026-07-20,17:45,20:00,17:45 - 20:00,Mitte,10178,Alexanderplatz 1,UKRAINE_RUSSIA,HIGH,45,"",52.5215058,13.4123809,0.8,"",Foreign policy topic with potentially high emotional tension
c30440ca73e8c2e1-251,"Für Frieden, Freiheit und Selbstbestimmung (vom 05.01. bis 28.12.2026 - jeweils Mo.)",2026-07-20,17:45,19:30,17:45 - 19:30,Steglitz-Zehlendorf,14163,Kirchstr. 1,OTHER_POLITICAL,LOW,20,"",52.4333344,13.2579626,0.8,"",General political topic
